category,NODE_ID,location,lng,lat,img
bus,100000001,종로2가사거리,126.9877522923,37.5698055407,bus1
bus,100000002,창경궁.서울대학교병원,126.9965206101,37.579432931999996,bus2
bus,100000003,명륜3가.성대입구,126.99825083719999,37.5825800121,bus3
bus,100000004,종로2가.삼일교,126.9876130976,37.5685792736,bus4
bus,100000005,혜화동로터리.여운형활동터,127.00174399999999,37.586242999999996,bus5
bus,101000305,서대문역사거리,126.966893,37.566137,bus6
bus,100000380,서울역사박물관.경희궁앞,126.97038,37.569134999999996,bus7
bus,100000379,서울역사박물관.경희궁앞,126.9707589959,37.5695119837,bus8
bus,100000384,광화문,126.9763534416,37.570141681100004,bus9
bus,100000385,광화문,126.9778802991,37.5702396638,bus10
bus,100000386,종로1가,126.9810660928,37.5701482455,bus11
bus,100000387,종로1가,126.9816283242,37.5702710116,bus12
bus,100000388,종로2가,126.9849902588,37.5701723774,bus13
bus,100000389,종로2가,126.9865353674,37.5702378859,bus14
bus,100000390,종로3가.탑골공원,126.98932564639999,37.5702088889,bus15
bus,100000391,종로3가.탑골공원,126.9899877751,37.5703605443,bus16
bus,100000392,종로4가.종묘,126.99472188959999,37.5705069968,bus17
bus,100000393,종로4가.종묘,126.995395739,37.570635001999996,bus18
bus,100000394,종로5가.광장시장,126.9990604685,37.5707860047,bus19
bus,100000395,종로5가.광장시장,126.99960381129999,37.570930167,bus20
bus,100000396,종로6가.동대문종합시장,127.004462788,37.5710111729,bus21
bus,100000397,종로6가.동대문종합시장,127.0057137364,37.5711272339,bus22
bus,100000398,동대문역.흥인지문,127.01381594799999,37.572447536,bus23
bus,100000365,동대문역.흥인지문,127.0124518417,37.5721053097,bus24
bus,100000366,동묘앞,127.0186102731,37.5738321574,bus25
bus,100000367,동묘앞,127.0195527812,37.5742464626,bus26
bus,100000006,경기상고,126.96936345540001,37.5875502159,bus27
bus,100000007,신교동,126.97026268649999,37.5832955233,bus28
bus,100000008,경기상고,126.9697701102,37.5871907861,bus29
bus,100000009,경복고교,126.97088024680001,37.5851600316,bus30
bus,100000010,청운중학교,126.9726741314,37.587810579,bus31
bus,100000011,자하문고개.윤동주문학관,126.96712618049999,37.5921866176,bus32
bus,100000012,자하문고개.윤동주문학관,126.9671906625,37.5923353152,bus33
bus,100000013,청운중학교,126.97226313040001,37.5884219586,bus34
bus,100000014,경복고교,126.9714039185,37.5850633028,bus35
bus,100000015,통인시장종로구보건소,126.97105004040002,37.5803257033,bus36
bus,100000016,통인시장종로구보건소,126.9713851083,37.580513211799996,bus37
bus,100000017,효자동,126.9706209712,37.583091043,bus38
bus,100000018,사직단.어린이도서관,126.9679907155,37.5751355316,bus39
bus,100000019,경복궁역1번출구,126.9714158133,37.5761614873,bus40
bus,100000020,경복궁역,126.9721994292,37.577040144,bus41
bus,100000021,경복궁역,126.9722828893,37.577671386300004,bus42
bus,100000022,경복궁,126.9787471496,37.5755767894,bus43
bus,100000023,KT광화문지사,126.9774162769,37.5723209262,bus44
bus,100000415,국립고궁박물관,126.97398176639999,37.5789303855,bus45
bus,100000025,광화문,126.97640724,37.5700448348,bus46
bus,100000028,서울역사박물관.경교장.강북삼성병원,126.971248,37.570023,bus47
bus,100000029,광화문.금호아시아나본관앞,126.9728386477,37.5703368912,bus48
bus,100000030,광화문,126.97583700000001,37.570365,bus49
bus,100000031,세종문화회관,126.9769975778,37.5736489318,bus50
bus,100000032,서울경찰청.경복궁역,126.9714842989,37.5757446636,bus51
bus,100000033,사직단,126.96818896100001,37.574855345799996,bus52
bus,100000034,광화문.광화문빌딩,126.9765432476,37.5694930022,bus53
bus,100000035,덕성여중고,126.981972246,37.5757693863,bus54
bus,100000036,안국역.서울공예박물관,126.9839957858,37.5760695565,bus55
bus,100000037,국민은행세검정지점,126.9608880061,37.6046629766,bus56
bus,100000038,세검정초등학교,126.9612198463,37.602502279899994,bus57
bus,100000039,세검정.상명대,126.9582921267,37.6004770909,bus58
bus,100000040,상명대입구.석파랑,126.958570225,37.5994133537,bus59
bus,100000041,하림각,126.96170682350001,37.598133066500004,bus60
bus,100000042,자하문터널입구.석파정,126.9636434993,37.5955935123,bus61
bus,100000043,부암동주민센터.무계원,126.96422219889999,37.5927670827,bus62
bus,100000044,부암동주민센터.무계원,126.96514192110001,37.5927861733,bus63
bus,100000045,자하문터널입구.석파정,126.9639775924,37.5955575712,bus64
bus,100000046,하림각,126.962215308,37.598147647800005,bus65
bus,100000047,상명대입구.세검정교회,126.9592405649,37.5996163318,bus66
bus,100000048,세검정.상명대,126.959155798,37.6006470965,bus67
bus,100000049,세검정초등학교,126.9614328894,37.6022680671,bus68
bus,100000051,국민은행세검정지점,126.9611926889,37.6048461618,bus69
bus,100000053,승가사입구,126.9563059978,37.6115844138,bus70
bus,100000054,구기동현대빌라,126.9564575503,37.6100355035,bus71
bus,100000055,구기터널.삼성출판박물관,126.95621032940001,37.6086098941,bus72
bus,100000056,구기터널.삼성출판박물관,126.9564166508,37.6083054034,bus73
bus,100000057,구기동,126.95852979280001,37.6069644475,bus74
bus,100000058,구기동,126.95910174790001,37.6070088003,bus75
bus,100000059,승가사입구,126.95648200000001,37.61148,bus76
bus,100000060,갑을씨티텔앞,126.9635350292,37.6043709709,bus77
bus,100000061,평창파출소,126.9660432906,37.6053223656,bus78
bus,100000062,평창동주민센터,126.9695663093,37.6066073749,bus79
bus,100000063,일성아파트,126.9729237379,37.6088723554,bus80
bus,100000064,롯데아파트,126.97631561520001,37.6103897208,bus81
bus,100000065,롯데아파트,126.976652,37.610248,bus82
bus,100000066,벽산평창힐스아파트,126.972797,37.60819,bus83
bus,100000067,예능교회,126.97,37.606517,bus84
bus,100000068,서울예술고등학교.평창동주민센터,126.9676276108,37.605778760599996,bus85
bus,100000069,화정박물관,126.9648102665,37.6045038178,bus86
bus,100000376,강북삼성병원,126.96860048280001,37.568145926999996,bus87
bus,100000072,독립문역.서대문형무소역사관,126.9593185682,37.5733918848,bus88
bus,100000073,서대문.서울시교육청,126.9645273358,37.5682538056,bus89
bus,100000368,서대문역사거리.적십자병원,126.9675878497,37.5671081521,bus90
bus,100000075,독립문,126.9614303112,37.5713430165,bus91
bus,100000076,창덕궁.서울돈화문국악당,126.98853944790001,37.5775405746,bus92
bus,100000077,서린동.SK서린빌딩,126.9800947893,37.5692639006,bus93
bus,100000078,청계1가.광교,126.9849267193,37.568684389,bus94
bus,100000079,청계2가.수표교,126.99081721610001,37.5684453156,bus95
bus,100000080,청계4가.세운교,126.9965617399,37.568925402800005,bus96
bus,100000081,청계5가.광장시장,126.9997973605,37.5694512793,bus97
bus,100000102,원남동,126.9973383362,37.5745325055,bus98
bus,100000103,창덕궁.우리소리박물관,126.9889538872,37.5772726542,bus99
bus,100000104,안국역.인사동,126.9841344381,37.575798979,bus100
bus,100000105,조계사.종로경찰서,126.98315558030001,37.572522309499995,bus101
bus,100000106,조계사.종로경찰서,126.9828258888,37.5724858087,bus102
bus,100000107,안국동,126.9827201116,37.5746105669,bus103
bus,100000108,종로5가.효제동.김상옥의거터,127.00223000000001,37.5745,bus104
bus,100000109,종로5가.효제초등학교,127.0021442279,37.572879013299996,bus105
bus,100000414,창덕궁.돈화문국악당,126.991234977,37.5774327721,bus106
bus,100000116,종로5가,127.00218265219999,37.5705596025,bus107
bus,100000117,청계6가.동대문시장,127.00284942030001,37.569835110300005,bus108
bus,100000118,동대문,127.00841262520001,37.5717262368,bus109
bus,100000119,충신동,127.006278812,37.5740223509,bus110
bus,100000121,충신동,127.0063433807,37.5744602778,bus111
bus,100000122,현대그룹빌딩,127.0008065808,37.5759104142,bus112
bus,100000123,방송통신대.이화장,127.00243700000001,37.578043,bus113
bus,100000124,혜화역.마로니에공원,127.0022769364,37.5811194873,bus114
bus,100000125,혜화역.서울대병원입구,127.0018481852,37.5809559696,bus115
bus,100000126,방송통신대.이화장,127.0019782952,37.5777889737,bus116
bus,100000127,이화동(이화장),127.0006951494,37.576119355,bus117
bus,100000128,창경궁.서울대학교병원,126.9968717143,37.5788279947,bus118
bus,100000129,이화동(이화장),127.00327081719999,37.575937291399995,bus119
bus,100000130,혜화동로터리,127.0006878052,37.585580330700004,bus120
bus,100000131,명륜동2가.성균관대입구,126.99939876229999,37.5833334862,bus121
bus,100000132,혜화역.서울연극센터(장면총리가옥),127.0013281701,37.584022814,bus122
bus,100000133,혜화역.동성중고(장면총리가옥),127.00171768870001,37.5845697705,bus123
bus,100000135,종로구민회관.창신동두산아파트,127.0155555279,37.5740926792,bus124
bus,100000139,동묘앞역6번출구,127.0156014431,37.571684956599995,bus125
bus,100000140,동묘앞역5번출구,127.0159450485,37.5719221488,bus126
bus,101000307,청계2가교차로,126.98787787049999,37.5684809008,bus127
bus,100000142,창신3동주민센터,127.015178,37.578413,bus128
bus,100000143,숭인1동주민센터.창신역4번출구,127.0154557816,37.5786281555,bus129
bus,100000144,동묘역.롯데캐슬천지인,127.0158023517,37.5741800523,bus130
bus,100000147,신설동로터리,127.02284142959999,37.5756947252,bus131
bus,100000364,동묘앞역2번출구,127.0175234975,37.5736431148,bus132
bus,100000150,구기동현대빌라,126.956622,37.609682,bus133
bus,100000151,광장시장,126.99774379459998,37.5694963125,bus134
bus,100000153,혜화경찰서,126.9974787875,37.5725807445,bus135
bus,100000154,서울역사박물관.김구집무실(경교장),126.97213180770001,37.5699003386,bus136
bus,100000155,청계3가.관수교,126.9937793705,37.5686887917,bus137
bus,100000156,청계6가.버들다리,127.0080377075,37.569930386799996,bus138
bus,100000157,청계7가.맑은내다리,127.0130967122,37.5700419608,bus139
bus,100000158,청계8가.영도교,127.0181256262,37.5708949889,bus140
bus,100000159,원남동사거리,126.9981123217,37.5757617378,bus141
bus,100000165,숭인동,127.0204373408,37.5742721533,bus142
bus,100000169,조계사,126.9831609226,37.572800338,bus143
bus,100000174,세종문화회관,126.9770032167,37.5732180408,bus144
bus,100000179,이화동(이화장),127.002955,37.576257,bus145
bus,100000180,상명대정문,126.95502071780001,37.6016197182,bus146
bus,100000181,이북오도청,126.95597296860001,37.6127234824,bus147
bus,100000188,상명대입구.세검정교회,126.9597921957,37.5994435122,bus148
bus,100000189,상명대입구.석파랑,126.95819414040001,37.5995718125,bus149
bus,100000190,종로중부새마을금고,127.0065911394,37.5724174899,bus150
bus,100000191,신설동로터리.신한은행앞.서울풍물시장,127.0231950517,37.5742548131,bus151
bus,100000192,청계2가.삼일교,126.9869890809,37.5683454305,bus152
bus,100000193,청계8가.황학교,127.0227870051,37.5721307298,bus153
bus,100000355,평창동삼성아파트,126.9787981475,37.611180089499996,bus154
bus,100000370,안국역.인사동,126.98553654860001,37.5763329308,bus155
bus,100000369,안국역.서울공예박물관,126.98488712139999,37.5764140065,bus156
bus,100000371,창덕궁,126.9890031166,37.5772280879,bus157
bus,100000413,남인사마당,126.9874286375,37.5713191723,bus158
bus,100900047,평창파출소,126.96681670209999,37.605681218,bus159
bus,100900178,삼청공원,126.98164689459999,37.5882276807,bus160
bus,100900041,수성동계곡,126.96446789209999,37.5820813834,bus161
bus,100900040,명륜3가종점,126.99286367959999,37.5909483783,bus162
bus,100900197,명륜새마을금고,126.99679014770001,37.5877854691,bus163
bus,100900044,서대문3번출구,126.9663939394,37.5663370645,bus164
bus,100900039,낙산공원,127.0087215681,37.5804037213,bus165
bus,100900037,인사미술공간.세탁소,126.9893670844,37.5814109836,bus166
bus,100900036,화정박물관,126.96488374540002,37.6048011982,bus167
bus,100900035,금융연수원,126.98165826809999,37.586639826799995,bus168
bus,100900034,박노수미술관,126.966603478,37.5809967425,bus169
bus,100900032,샘미용실,126.9932227051,37.5903095275,bus170
bus,100900031,서울국제고등학교,126.9972902593,37.589071594699995,bus171
bus,100900029,화정박물관,126.96520078969999,37.6049806084,bus172
bus,100900188,적십자병원후문앞,126.96522727690001,37.5675295356,bus173
bus,100900202,서울성곽.성대후문,126.989569366,37.5893663808,bus174
bus,100900026,빨래터.고희동미술관,126.9890634276,37.582987218,bus175
bus,100900025,세검초등학교,126.9614907597,37.604252279200004,bus176
bus,100900024,삼청동주민센터,126.98190716190001,37.5842638281,bus177
bus,100900020,통인시장,126.9687565329,37.5804698178,bus178
bus,100900021,양현관,126.99360436149999,37.5897914226,bus179
bus,100900017,국민생활관,126.9988619666,37.5897456349,bus180
bus,100900016,오거리,126.9622629001,37.6070621164,bus181
bus,100900015,경희궁자이2.3단지,126.9640686009,37.5687871134,bus182
bus,100900013,창신쌍용2단지.한성대후문,127.0127581151,37.5812647965,bus183
bus,100900045,통일부,126.9859476734,37.5875948053,bus184
bus,100900011,원서고개,126.9878088426,37.583080553,bus185
bus,100900009,종로5가입구.혜화경찰서,126.9976709493,37.5717928476,bus186
bus,100900007,삼청파출소,126.9812510491,37.581813661999995,bus187
bus,100900005,오거리.한옥마을입구,126.9696088803,37.579404615,bus188
bus,100900046,명륜시장.성대후문,126.9952543092,37.5885110529,bus189
bus,100900003,혜화초등학교,126.99985166430001,37.5872532276,bus190
bus,100900072,청련사입구,126.9624312007,37.6079803769,bus191
bus,100900071,영천시장,126.9627388724,37.5700818569,bus192
bus,100900070,명신초.삼선푸르지오.힐스테이트,127.014556281,37.582106206700004,bus193
bus,100900069,감사원,126.9852900569,37.586210651799995,bus194
bus,100900068,중앙중고,126.98696529899999,37.583092177,bus195
bus,100900067,인왕빌딩,126.9577443332,37.6079283311,bus196
bus,100900066,종로4가.종묘공원,126.9946203403,37.5706890289,bus197
bus,100900174,국립민속박물관,126.9795533717,37.5792551846,bus198
bus,100900065,광화문새마을금고,126.97114664909999,37.5793687689,bus199
bus,100900064,새마을금고,126.99651805100001,37.587737061300004,bus200
bus,100900063,혜화우체국,127.0006137149,37.586037656500004,bus201
bus,100900062,언덕앞,126.96379217149999,37.608953975300004,bus202
bus,100900061,경희궁자이4단지,126.9621148375,37.5707022242,bus203
bus,100900060,종로센트레빌후문.e편한세상보문아파트,127.0161855253,37.5817743934,bus204
bus,100900059,사우디대사관앞.경남빌라,126.9850311776,37.5841056738,bus205
bus,100900058,안국선원.삼거리,126.984994076,37.5827909789,bus206
bus,100900182,구기터널입구,126.9567768927,37.6082046142,bus207
bus,100900057,종로3가.1.3.5호선,126.9920931881,37.5710875771,bus208
bus,100900056,경복궁,126.97933775610001,37.576950157,bus209
bus,100900054,소나무집,126.96411046600001,37.6112770717,bus210
bus,100900186,독립문역3번출구,126.9597453483,37.5728784775,bus211
bus,100900053,청룡사.보문파크뷰자이아파트,127.01700714,37.5800189539,bus212
bus,100900052,북촌한옥마을입구.정세권활동터,126.9849422317,37.5815997311,bus213
bus,100900217,종로1.2.3.4가동주민센터,126.99113142559999,37.574383712199996,bus214
bus,100900051,창덕궁,126.99062001530001,37.5760892484,bus215
bus,100900050,아름다운실버,126.965463701,37.6120100581,bus216
bus,100900049,독립문초등학교,126.9607207234,37.5738474794,bus217
bus,100900206,종로센트레빌아파트,127.01569269790001,37.580353440500005,bus218
bus,100900048,가회동주민센터,126.98495432840001,37.579972942,bus219
bus,100900097,구기빌라,126.9579797248,37.6062686142,bus220
bus,100900096,원남로터리,126.997511497,37.5762373738,bus221
bus,100900095,보현산신각,126.96577905209999,37.6134825236,bus222
bus,100900094,천사유치원,126.9618603707,37.5746480221,bus223
bus,100900093,쌍용아파트입구.창신역,127.01496357379999,37.580511226,bus224
bus,100900092,아름다운가게.정독도서관,126.9851271782,37.5789480833,bus225
bus,100900091,산정빌라,126.95749220020001,37.6051519935,bus226
bus,100900090,이화사거리,127.00209146659999,37.5765095598,bus227
bus,100900089,박종화고택입구,126.96768734620001,37.6143102577,bus228
bus,100900088,무악현대아파트후문,126.962001046,37.5763060751,bus229
bus,100900086,헌법재판소.안국역,126.98581521850001,37.5773871956,bus230
bus,100900184,청구빌라,126.9569839726,37.6046102563,bus231
bus,100900085,서울대어린이병원응급실.갑상선센터,126.99950296620001,37.5781188768,bus232
bus,100900083,화인빌라,126.9685386165,37.6129345305,bus233
bus,100900082,넓은마당,126.9628880463,37.5752728058,bus234
bus,100900207,창신초등학교,127.0153885503,37.5769032044,bus235
bus,100900081,수운회관,126.986669266,37.5752189424,bus236
bus,100900080,상명대후문,126.9573354115,37.6040255786,bus237
bus,100900079,힐탑,126.9690205751,37.6116055569,bus238
bus,100900187,신학대학교총회본부,126.96344456690001,37.5739763092,bus239
bus,100900078,낙원상가,126.98741487219999,37.5737563689,bus240
bus,100900077,완성빌라,126.9575011241,37.6034020863,bus241
bus,100900076,서울대병원장례식장,126.99743096479999,37.5805553988,bus242
bus,100900075,혜화역1번출구,127.00184541739999,37.5834855091,bus243
bus,100900074,감나무골공원,126.9699479367,37.6124059606,bus244
bus,100900073,한국사회과학자료원,126.9641432573,37.573633207600004,bus245
bus,100900205,동묘역,127.01424538190001,37.5726943506,bus246
bus,100900121,금강제화,126.98754841370001,37.5705713654,bus247
bus,100900120,경진빌라,126.95783036120001,37.6020037175,bus248
bus,100900198,성균관대학교앞,126.9993359079,37.5832597848,bus249
bus,100000416,청와대,126.973768082,37.5829712951,bus250
bus,100000417,춘추문,126.97965544360001,37.5831276121,bus251
bus,100000418,경복궁.국립민속박물관,126.97959113510001,37.5794135204,bus252
bus,100900119,EN갤러리,126.9706087294,37.6134217965,bus253
bus,100900218,성균관대정문,126.9966204422,37.584956346599995,bus254
bus,100900219,600주년기념관,126.9939426439,37.5873281035,bus255
bus,100900220,성균관대운동장,126.9923688088,37.5878641029,bus256
bus,100900221,학생회관,126.9937416657,37.587445222,bus257
bus,100900118,종로문화센터,126.9646261961,37.574647081100004,bus258
bus,100900117,동대문역.2번출구,127.01172180020001,37.5720494465,bus259
bus,100900116,종각역YMCA,126.98508926,37.5703976388,bus260
bus,100900115,서교빌라,126.95715536549999,37.601989057,bus261
bus,100900177,경복궁역,126.9724733176,37.5770722054,bus262
bus,100900199,성대입구,126.99885300700001,37.5832668015,bus263
bus,100900114,무애사,126.9718458037,37.613900428200004,bus264
bus,100900113,단군성전앞,126.96531751190001,37.5755600915,bus265
bus,100900192,동대문종합시장,127.004958038,37.5712161296,bus266
bus,100900112,상명초등학교,126.95671541799999,37.6009238115,bus267
bus,100900179,법련사,126.97966505389999,37.5765879752,bus268
bus,100900111,광화문새마을금고,126.9710277184,37.5794930902,bus269
bus,100900110,성균관대학교,126.99719218540001,37.58516359,bus270
bus,100900109,참샘골공원,126.9742524976,37.6146097003,bus271
bus,100900108,활터앞,126.9653293849,37.5768126115,bus272
bus,100900107,종로5가.3번출구,127.0020898456,37.5714192458,bus273
bus,100900106,인사동들머리.3.1독립선언터,126.983296967,37.5719470235,bus274
bus,100900105,정독도서관,126.980080541,37.5802605382,bus275
bus,100900104,오거리.한옥마을입구,126.9697392663,37.5794684375,bus276
bus,100900103,평창공원지킴터입구,126.97574387610001,37.6163963984,bus277
bus,100000360,창경궁.고궁호텔.메이플레이스호텔,126.99744921690001,37.5765581609,bus278
bus,100000329,광화문,126.9755694982,37.5703374879,bus279
bus,100000330,종로1가,126.980129,37.570370000000004,bus280
bus,100000333,종로2가,126.9864618183,37.5700824558,bus281
bus,100000334,종로3가,126.9932082199,37.5706348964,bus282
bus,100000335,종로3가,126.99099321860001,37.570102425500004,bus283
bus,100000336,종로4가,126.9962507486,37.5704692645,bus284
bus,100000338,동대문종합시장종로6가,127.0032911936,37.5708647997,bus285
bus,100900102,종로도서관,126.96712515979999,37.5764842271,bus286
bus,100000343,경복궁역,126.97150564479999,37.5761780936,bus287
bus,100000344,경복궁역,126.97168197399999,37.5758191735,bus288
bus,100000345,안국역,126.985229602,37.5766137515,bus289
bus,100000346,안국역,126.98550598290001,37.5763185096,bus290
bus,100000347,창덕궁,126.9889000774,37.5775204226,bus291
bus,100000348,성대입구,126.9992357955,37.5832827975,bus292
bus,100900101,종로사우나,126.9877503526,37.5738011149,bus293
bus,100900180,엄마분식,126.9557163281,37.6012424257,bus294
bus,100900100,삼청파출소,126.98132581979999,37.58164517,bus295
bus,100900099,통인시장.종로구보건소,126.96875047969999,37.5803350289,bus296
bus,100900191,종로5가역,127.0000249058,37.570671358,bus297
bus,100900098,평창동산림제3초소,126.9771030504,37.617356049899996,bus298
bus,100900145,배화여중고,126.96769863370001,37.576778756399996,bus299
bus,100900143,대학로입구.이화사거리,127.0025801998,37.5759841652,bus300
bus,100900144,운현궁,126.98698138030001,37.5752716136,bus301
bus,100900142,상명대입구,126.9569583018,37.6000210109,bus302
bus,100900141,삼청동주민센터,126.98221051510001,37.5846846831,bus303
bus,100900140,박노수미술관,126.9668944502,37.5810265604,bus304
bus,100900139,김창열.윤명로화실,126.97836854360001,37.616304998000004,bus305
bus,100900138,사직공원.경복궁역입구,126.96890390950001,37.5762206893,bus306
bus,100900137,충신시장,127.00540487399999,37.5749766498,bus307
bus,100900189,안국역2번출구앞,126.98611832719999,37.5771728174,bus308
bus,100900135,금융연수원,126.981847891,37.5858776706,bus309
bus,100900134,감람산기도원,126.9798729651,37.6159439291,bus310
bus,100900133,카센터.터널앞,126.96604371069999,37.574240568200004,bus311
bus,100900131,재동초등학교,126.9853617134,37.578791085,bus312
bus,100900129,삼청공원삼거리.옥호정터,126.9817444742,37.5874185176,bus313
bus,100900128,이화사거리,127.0022812884,37.575320067199996,bus314
bus,100900127,연화정사,126.9794938432,37.6146490046,bus315
bus,100900126,대신중고,126.9616893251,37.5726178078,bus316
bus,100900125,현대사거리,126.9866353642,37.5792417814,bus317
bus,100900215,교남동주민센터,126.9612800199,37.5721522968,bus318
bus,100900181,부암동주민센터.무계원,126.96376822629999,37.5929353403,bus319
bus,100900124,형제봉입구,126.9816861503,37.6128643152,bus320
bus,100900123,교남동새마을금고,126.962337459,37.5714943551,bus321
bus,100900122,창신초교,127.01572009610001,37.5760372123,bus322
bus,100900168,가회동주민센터,126.9851293823,37.5799426497,bus323
bus,100900167,볼링장,126.9879589184,37.5792554401,bus324
bus,100900166,부암슈퍼,126.9638602023,37.5947600723,bus325
bus,100900165,지구촌교회,126.9792421489,37.6131060324,bus326
bus,100900164,월암공원,126.9646918774,37.571226091599996,bus327
bus,100900163,숭인1동주민센터,127.01556074780001,37.5774150014,bus328
bus,100900162,북촌한옥마을입구.정세권활동터,126.98516874459999,37.5812807738,bus329
bus,100900161,하림각,126.9629663842,37.5976847268,bus330
bus,100900160,보현빌라,126.9784205906,37.6153822583,bus331
bus,100900159,스위스대사관,126.9656960774,37.5701413179,bus332
bus,100900157,안국선원.삼거리,126.9852205387,37.582743249699995,bus333
bus,100900156,세검정교회,126.9600291533,37.5993880238,bus334
bus,100900200,혜화동로터리,127.00100322979999,37.5859196111,bus335
bus,100900155,김종영미술관,126.97811229530001,37.613263788400005,bus336
bus,100900154,서울시교육청,126.9666998924,37.569381682,bus337
bus,100900210,창신쌍용1단지.종로센트레빌아파트,127.01556927850001,37.5803228198,bus338
bus,100900153,사우디대사관,126.9852486243,37.583863308000005,bus339
bus,100900152,상명대입구,126.9574023475,37.5998544708,bus340
bus,100900151,혜화초등학교,126.9999909413,37.5873892922,bus341
bus,100900149,강북삼성병원,126.9683376852,37.5685315243,bus342
bus,100900148,청룡사.보문파크뷰자이아파트,127.01715087870001,37.5797846496,bus343
bus,100900147,감사원,126.9855618026,37.5862656518,bus344
bus,100900201,국민생활관,126.99931378389999,37.5896275957,bus345
bus,100900173,종로센트레빌후문.e편한세상보문아파트,127.01623537110001,37.5818978359,bus346
bus,100900172,통일부,126.9861073451,37.5875308468,bus347
bus,100900171,서울국제고등학교,126.9971407875,37.5890742944,bus348
bus,100900203,성대후문.와룡공원,126.989734001,37.5891522774,bus349
bus,100900170,상명초등학교,126.9568173576,37.600904926,bus350
bus,100900169,새마을금고,126.9965690016,37.5878406881,bus351
bus,100900002,경진빌라,126.9579482257,37.601864091100005,bus352
bus,100900004,명륜시장.성대후문,126.99523051620001,37.5887246101,bus353
bus,100900006,완성빌라,126.9576665157,37.6033399708,bus354
bus,100900008,양현관,126.9937685575,37.5897680031,bus355
bus,100900010,상명대후문,126.9574633677,37.6040715802,bus356
bus,100900012,샘미용실,126.9934084203,37.5902545716,bus357
bus,100900014,산정빌라,126.9575782035,37.6052835831,bus358
bus,100900018,구기빌라,126.95798093350001,37.6061334517,bus359
bus,100900019,마트앞,126.958756466,37.606698706399996,bus360
bus,100900022,국민은행.세검정지점,126.9608727063,37.604954174899994,bus361
bus,100900027,혜화역4번출구,127.00155388719999,37.5835080381,bus362
bus,100900028,방송통신대앞,127.0019926794,37.5786973612,bus363
bus,100900030,서울대치과대학,126.99780096200001,37.5774082997,bus364
bus,100900033,효제초교.연동교회.김마리아활동터,127.00220878110001,37.5736413355,bus365
bus,100900204,성균관대학교,126.99000359530001,37.5884638684,bus366
bus,100900214,독립문역,126.9594077577,37.5732838531,bus367
bus,100900038,서울대치과대학,126.9978632209,37.5775727323,bus368
bus,100900043,이화사거리,127.0020084833,37.576948343699996,bus369
bus,100900042,서울대학교병원현관.암병원현관,126.99816316370001,37.5790872846,bus370
bus,100900211,종각.공평유적전시관,126.9832427053,37.5715937879,bus371
bus,100900213,조계사,126.9831364101,37.5736021088,bus372
bus,100000399,동대문역JW메리어트동대문호텔,127.00928209979999,37.5706369793,bus373
bus,100000407,대학로,127.00212041639999,37.58189612,bus374
bus,100000408,창경궁,126.9964163097,37.5791596347,bus375
bus,100000409,창덕궁,126.9901776043,37.577530170799996,bus376
bus,100000410,인사동.북촌,126.98379778729999,37.5758950223,bus377
bus,100000411,경복궁.국립민속박물관,126.9795487018,37.579339181,bus378
bus,100000412,세종문화회관,126.97700336940001,37.5732209604,bus379
bus,100000401,통인시장,126.97133157270001,37.5791187605,bus380
bus,100000402,세종문화회관,126.9770345023,37.5732119565,bus381
bus,101000313,종각역,126.98289441709998,37.5693799579,bus382
bus,100000403,인사동.탑골공원,126.98880064129999,37.5701155367,bus383
bus,100000404,종묘.세운상가,126.9934997231,37.5703736241,bus384
bus,100000405,광장시장,126.9996734151,37.5706237295,bus385
bus,100000406,동묘.숭인동도깨비시장,127.0180439092,37.5734766013,bus386
bus,105000553,서울풍물시장,127.0231780999,37.5733400255,bus387
bus,100000400,청와대,126.9737600308,37.582684814000004,bus388
bus,101000001,남대문세무서.서울백병원,126.9875299251,37.5649848069,bus389
bus,101000002,서울백병원.국가인권위.안중근활동터,126.9878515151,37.5643504711,bus390
bus,101000003,서울역버스환승센터,126.9722570849,37.5551460158,bus391
bus,101000004,서울역버스환승센터,126.9726941135,37.555405093699996,bus392
bus,101000005,서울역버스환승센터,126.9727617448,37.5553876977,bus393
bus,101000006,서울역버스환승센터,126.9728547738,37.5554794133,bus394
bus,101000007,서울역버스환승센터.강우규의거터,126.9729402621,37.5554141603,bus395
bus,101000008,숭례문,126.97377839040001,37.5586388574,bus396
bus,101000329,숭례문(가상),126.97435564959999,37.5597967723,bus397
bus,101000303,서울시청,126.9806320857,37.5661382638,bus398
bus,101000009,만리동고개,126.9626582054,37.551787064,bus399
bus,101000010,손기정체육공원입구,126.96623390129999,37.5544459527,bus400
bus,101000011,서울의료보건고등학교.서울역서부,126.9689026242,37.5558478973,bus401
bus,101000012,서울역서부,126.96915144629999,37.556237644,bus402
bus,101000013,서울역서부,126.96921200000001,37.557133,bus403
bus,101000014,중림동교차로,126.96913543950001,37.5583836266,bus404
bus,101000015,종근당.충정로역,126.96454079629999,37.5596488763,bus405
bus,101000016,한국경제신문사.서소문역사공원,126.96786801489999,37.560211149699995,bus406
bus,101000017,한국경제신문사.서소문역사공원,126.9681135141,37.5606234736,bus407
bus,101000018,경찰청.동북아역사재단,126.96912672280001,37.5630494858,bus408
bus,101000300,장충동써미트호텔,127.00667500780001,37.562273660500004,bus409
bus,101000020,서대문경찰서.농협은행.유관순활동터,126.9677868059,37.5649062803,bus410
bus,101000021,염천교,126.97311408,37.5598696316,bus411
bus,101000022,숭례문,126.97335794,37.5584010617,bus412
bus,101000023,숭례문.한국일보,126.9737375955,37.558771309099996,bus413
bus,101000025,후암삼거리,126.97599375639999,37.5534055956,bus414
bus,101000026,숭례문,126.974362745,37.5587633765,bus415
bus,101000027,숭례문,126.9740436876,37.5584195299,bus416
bus,101000028,숭례문,126.97362794520001,37.558000652800004,bus417
bus,101000029,남대문시장악세사리전문상가,126.9759976615,37.5588723988,bus418
bus,101000030,숭례문남산방향,126.9756720863,37.558558164299995,bus419
bus,101000031,남대문시장,126.9800597585,37.561191081,bus420
bus,101000032,북창동.남대문시장,126.97828318399999,37.5612289483,bus421
bus,101000033,시청앞,126.97644367,37.562197167,bus422
bus,101000034,삼성본관앞,126.9759075283,37.5620517519,bus423
bus,101000035,시청앞,126.97614871399999,37.562764205,bus424
bus,101000036,서소문,126.9746522037,37.563190144699995,bus425
bus,101000038,시청.서소문청사,126.9749539314,37.563524840700005,bus426
bus,101000039,서울신문사,126.9773647051,37.5683632936,bus427
bus,101000040,우리은행종로지점,126.9829289124,37.567519004699996,bus428
bus,101000041,롯데백화점,126.98220699379999,37.5645069796,bus429
bus,101000042,해운센터.롯데영프라자,126.98154783940001,37.562890784699995,bus430
bus,101000043,롯데영프라자,126.98200800000001,37.562884999999994,bus431
bus,101000045,신세계백화점,126.98143154379999,37.561127344,bus432
bus,101000046,남대문시장.회현역,126.97776505459998,37.558267523699996,bus433
bus,101000047,남대문시장.회현역,126.9784645011,37.558492025700005,bus434
bus,101000048,남산3호터널,126.9827404025,37.558310453800004,bus435
bus,101000049,남산3호터널.서울애니메이션센터,126.9826359346,37.5595260891,bus436
bus,101000050,명동역4번출구,126.9849157703,37.560657849,bus437
bus,101000051,퇴계로2가.명동역5번출구,126.98435829530001,37.5609325805,bus438
bus,101000052,퇴계로3가.한옥마을.한국의집,126.9917771969,37.5612508237,bus439
bus,101000053,퇴계로3가.한옥마을.한국의집,126.9924098253,37.560901966799996,bus440
bus,101000054,충무로역2번출구.대한극장앞,126.9947285429,37.5612375854,bus441
bus,101000055,충무로역8번출구.대한극장앞,126.99649215069999,37.5620371603,bus442
bus,101000056,초동,126.9931119513,37.5633461766,bus443
bus,101000057,을지로입구.로얄호텔,126.9853902774,37.5658757422,bus444
bus,101000058,을지로입구.시청입구,126.9811712097,37.5661382638,bus445
bus,101000059,을지로2가.기업은행본점.서울노동청,126.9865233528,37.566246226,bus446
bus,101000060,을지로2가.파인에비뉴,126.988670826,37.5660727123,bus447
bus,101000061,을지로3가,126.9902600103,37.5663729806,bus448
bus,101000062,을지로3가,126.99132764209999,37.5661205237,bus449
bus,101000063,을지로4가,126.9959336364,37.5666841559,bus450
bus,101000064,을지로4가.베스트웨스턴국도,126.99684732969999,37.5664010399,bus451
bus,101000065,중구청앞.덕수중학교,126.9981401348,37.564774595100005,bus452
bus,101000066,방산시장.을지로4가역6번출구,126.999258524,37.566818285500005,bus453
bus,101000067,을지로5가.중부시장,127.00111504110001,37.5666200422,bus454
bus,101000068,방산시장.훈련원종합체육관,127.0024044565,37.5679608485,bus455
bus,101000069,을지로5가.훈련원종합체육관,127.0025945654,37.565824354200004,bus456
bus,101000070,을지로6가.국립중앙의료원,127.00623161940001,37.566169834600004,bus457
bus,101000071,광희동,127.0072096931,37.5650528273,bus458
bus,101000072,광희동,127.00772225610001,37.5651725525,bus459
bus,101000073,을지로6가.국립중앙의료원,127.00584348209999,37.5664631128,bus460
bus,101000074,동대문역사문화공원,127.0083555318,37.567354142199996,bus461
bus,101000075,동대문역사문화공원,127.0091685169,37.5674835037,bus462
bus,101000077,충무아트센터.스포츠센터.중부소방서,127.01352314370001,37.565167525599996,bus463
bus,101000078,충무아트센터.스포츠센터.중부소방서,127.0147408667,37.5650178857,bus464
bus,101000079,성동공업고등학교(무궁화회관),127.0157558376,37.568348192399995,bus465
bus,101000080,성동공업고등학교앞,127.01612948809999,37.5686950625,bus466
bus,101000081,신당역.중앙시장앞,127.0187426545,37.5657282804,bus467
bus,101000082,신당역.중앙시장앞,127.0194795301,37.5654920748,bus468
bus,101000083,성동고등학교,127.0221821569,37.5655941894,bus469
bus,101000084,성동고등학교,127.02239790040001,37.5652410933,bus470
bus,101000085,신당동떡볶이타운.중구여성플라자,127.0150959791,37.5627954621,bus471
bus,101000086,신당동떡볶이타운.중구여성플라자,127.0151908517,37.5623100443,bus472
bus,101000087,신당동.청구역,127.0132161263,37.5589483023,bus473
bus,101000088,신당동.청구역,127.01303167959999,37.559257398,bus474
bus,101000089,약수역2번출구.가온도서관,127.0110429415,37.5557929112,bus475
bus,101000090,약수역3번출구.약수하이츠,127.0113796895,37.5557496102,bus476
bus,101000091,약수역4번출구.금호터널입구,127.01201200000001,37.553399,bus477
bus,101000092,약수역5번출구.금호터널입구,127.0118693353,37.55292373,bus478
bus,101000093,약수역8번출구.신당사회복지관,127.0099566945,37.5538646495,bus479
bus,101000094,약수역7번출구.약수동주민센터,127.00929784440001,37.5528509718,bus480
bus,101000095,송도병원앞,127.00771869879999,37.550267646799995,bus481
bus,101000096,송도병원앞,127.0073984027,37.550227118,bus482
bus,101000294,약수역1번출구,127.009755648,37.556252533,bus483
bus,101000097,장충체육관앞,127.00806108370001,37.5583362176,bus484
bus,101000098,장충체육관앞,127.0078281581,37.5580017329,bus485
bus,101000099,장충동.동국대입구,127.00590981,37.560621324,bus486
bus,101000100,장충동.동국대입구,127.0056290943,37.5606663921,bus487
bus,101000101,퇴계로6가,127.0039011095,37.563401131199996,bus488
bus,101000102,퇴계로6가,127.00337576,37.5635284386,bus489
bus,101000103,퇴계로5가,126.9999660413,37.562380405700004,bus490
bus,101000104,퇴계로5가,126.99972522770001,37.5627804223,bus491
bus,101000105,국립극장.반얀트리호텔,127.001094708,37.551481823,bus492
bus,101000106,국립극장.반얀트리호텔,127.0007525635,37.5515339575,bus493
bus,101000107,청구역,127.014656108,37.5599600605,bus494
bus,101000108,청구역,127.014219181,37.5599303778,bus495
bus,101000109,동화동,127.018125822,37.560024470900004,bus496
bus,101000110,동화동,127.0182736903,37.559812677800004,bus497
bus,101000111,백범광장,126.980093,37.555737,bus498
bus,101000113,남대문경찰서,126.9738404394,37.554128189000004,bus499
bus,101000114,남대문시장앞.이회영활동터,126.978580386,37.5609394169,bus500
bus,101000115,남산케이블카.남산산책로입구,126.9839798009,37.5552651842,bus501
bus,101000117,동대입구역.장충동,127.005445,37.558362,bus502
bus,101000295,약수역10번출구,127.009322,37.556256,bus503
bus,101000119,청계1가.광교,126.9833922386,37.5685707852,bus504
bus,101000120,청계2가.삼일교,126.98853017219999,37.5678404706,bus505
bus,101000121,청계4가.배오개다리,126.99717553629999,37.568484373800004,bus506
bus,101000122,청계5가.방산시장,127.00082659719999,37.5692149555,bus507
bus,101000123,청계6가.평화시장,127.0043806283,37.5694411915,bus508
bus,101000124,청계7가.동평화.청평화시장,127.0138508174,37.5695135434,bus509
bus,101000125,청계8가.영도교,127.0189971981,37.5707259153,bus510
bus,101000128,신한은행본점,126.975585201,37.5611965482,bus511
bus,101000130,동대문역사문화공원,127.00910922889999,37.5654113309,bus512
bus,101000131,버티고개,127.0060242348,37.5478041512,bus513
bus,101000132,버티고개,127.0061899379,37.547650494,bus514
bus,101000135,청계3가.관수교,126.9929650755,37.5682134567,bus515
bus,101000136,청계6가.오간수교,127.00903614079999,37.5694851752,bus516
bus,101000137,충무로역.매일경제,126.99338891049999,37.561690571999996,bus517
bus,101000141,을지로입구역.광교,126.9825656304,37.5676492567,bus518
bus,101000147,신당파인힐하나유보라,127.0248560363,37.5649809794,bus519
bus,101000148,명동입구,126.9825889917,37.5645430764,bus520
bus,101000149,남산북측순환로입구,126.9988218165,37.5506986166,bus521
bus,101000150,신당동삼성아파트.금호여중,127.01872988059999,37.5585545048,bus522
bus,101000151,신당동대우푸르지오.금호여중,127.019288178,37.5578078339,bus523
bus,101000152,황학동주민센터,127.0234023516,37.5668556166,bus524
bus,101000153,신당초등학교앞,127.0237217028,37.5646614917,bus525
bus,101000154,금호베스트빌.래미안하이베르,127.02405133069999,37.5616452068,bus526
bus,101000155,금호베스트빌.래미안하이베르,127.0243472269,37.5622544456,bus527
bus,101000156,신당초등학교,127.024240415,37.564502835700004,bus528
bus,101000157,서대문경찰서.농협은행.유관순활동터,126.9676503539,37.5651351161,bus529
bus,101000163,방산종합시장,127.0019301271,37.567805869299995,bus530
bus,101000164,황학동롯데캐슬,127.02203396860001,37.5716601701,bus531
bus,101000165,광희문.광희동사거리,127.0086110484,37.5645499236,bus532
bus,101000166,광희문.광희동사거리,127.00967788700001,37.5644016142,bus533
bus,101000168,황학동롯데캐슬,127.02329586329999,37.5708197498,bus534
bus,101000254,한국은행.신세계앞,126.9792899798,37.561408111999995,bus535
bus,101000258,서울기동대.광희초등학교,127.0144829458,37.5679222068,bus536
bus,101000261,동대문디자인플라자,127.0119962039,37.567700749000004,bus537
bus,101000262,서대문역사거리.농협중앙회,126.96798026559999,37.566884860900004,bus538
bus,101000263,서울스퀘어앞,126.97323173,37.555341632,bus539
bus,101000264,북창동.남대문시장,126.9769187336,37.5608462911,bus540
bus,101000266,힐튼호텔,126.97656716799999,37.5563677408,bus541
bus,101000265,힐튼호텔,126.97671134040002,37.556626741100004,bus542
bus,101000290,시청앞.덕수궁,126.97683557290001,37.5662122834,bus543
bus,101000292,남대문세무서.국가인권위원회,126.987866112,37.5650839621,bus544
bus,101000293,장충문화체육센터.권기옥활동터,127.0025921056,37.5601745008,bus545
bus,101000328,남산1호터널,126.99216662309999,37.5574051765,bus546
bus,101000331,남산예장버스환승주차장,126.9890328299,37.5600298579,bus547
bus,101900010,약수역.3.6호선,127.011705637,37.553304657300004,bus548
bus,101900009,조선일보,126.976883066,37.5687339805,bus549
bus,101900011,시청역,126.977002861,37.5656706181,bus550
bus,101900012,서울역,126.9713291252,37.558201257600004,bus551
bus,101900007,숭례문앞,126.976236105,37.5615164368,bus552
bus,101900006,프레스센터,126.977339075,37.5673960903,bus553
bus,101900005,신당역하나은행,127.0215878668,37.5654231103,bus554
bus,101900004,염천교,126.97111365239999,37.5597925744,bus555
bus,101900013,서울역서부,126.9692312733,37.5559789686,bus556
bus,101900003,한국경제신문사,126.9679526472,37.5609334062,bus557
bus,101900001,응봉근린공원.금호산,127.0169189818,37.5535217011,bus558
bus,101900023,서울방송고등학교.남산타운아파트,127.012409789,37.5495860191,bus559
bus,101900022,서울방송고등학교.남산타운아파트,127.0122783521,37.5496119425,bus560
bus,101900021,중구청소년센터.남산타운2상가,127.012751162,37.5516549062,bus561
bus,101900020,중구청소년센터.남산타운2상가,127.0121655599,37.5519027425,bus562
bus,101900019,약수시장.남산타운동문,127.0108500123,37.551733216799995,bus563
bus,101900018,약수지구대,127.01195776459998,37.5528410964,bus564
bus,101000173,남대문시장,126.9788338327,37.5613170207,bus565
bus,101000277,을지로입구역롯데호텔,126.9803053067,37.5658047183,bus566
bus,101000298,소공동웨스틴조선호텔,126.9796461336,37.5645178283,bus567
bus,101000301,서울광장,126.978885,37.565352000000004,bus568
bus,101000275,광화문코리아나호텔,126.9767760218,37.568422651300004,bus569
bus,101000276,서소문KAL빌딩,126.9743182567,37.5633387369,bus570
bus,101000273,동국대입구앰배서더호텔,127.00261020239999,37.5597717116,bus571
bus,101000226,광화문,126.9767623328,37.568758756,bus572
bus,101000227,시청덕수궁,126.9769656658,37.565492297,bus573
bus,101000229,바비엥스위트,126.9676372948,37.5651089852,bus574
bus,101000230,서울역,126.9728595843,37.5578195556,bus575
bus,101000234,명동역.세종호텔,126.98644929860001,37.5610860085,bus576
bus,101000244,충무로역.호텔피제이,126.9955605031,37.5617180187,bus577
bus,101000245,남대문시장,126.97873092549999,37.560967378,bus578
bus,101000246,이비스엠버서더호텔,126.982612619,37.5646093306,bus579
bus,101000247,프레이저플레이스,126.9692683016,37.5628476779,bus580
bus,101000250,서울역,126.97133600000001,37.55816,bus581
bus,101000257,아카시아호텔.웨스턴코업레지던스,127.0034786985,37.5665506121,bus582
bus,101000256,을지로코업레지던스,127.0053974501,37.5662333554,bus583
bus,101000255,토요코인호텔.이비스버젯호텔,127.0089472544,37.564591348899995,bus584
bus,101000271,약수역,127.0098978294,37.5537889625,bus585
bus,101000270,남산밀레니엄힐튼호텔,126.9759752961,37.5554665731,bus586
bus,101000269,서울역,126.9720456834,37.5580158041,bus587
bus,101000268,숭례문라마다&스위트호텔,126.97206848430001,37.560610959099996,bus588
bus,101000279,시청역더플라자호텔,126.9779059345,37.564156195,bus589
bus,101000286,시청.서울신문사,126.9773647244,37.568299316,bus590
bus,101000288,프레이저플레이스남대문,126.9762665716,37.5613760047,bus591
bus,101000287,프레이저플레이스남대문,126.9755365701,37.5610667807,bus592
bus,101000289,동대문역사문화공원,127.009245066,37.5653851887,bus593
bus,101000297,광희동더스프라지르서울동대문,127.0075552593,37.5647333277,bus594
bus,101000296,동대문디자인플라자DDP,127.009213839,37.5678529085,bus595
bus,101000299,베이튼호텔,127.0026364414,37.564999321500004,bus596
bus,101000316,광화문,126.9767086457,37.5689378963,bus597
bus,101000317,덕수궁,126.97672681200001,37.5655845504,bus598
bus,101000318,남대문시장,126.9753967375,37.5609231539,bus599
bus,101000319,명동,126.9856194882,37.5607583289,bus600
bus,101000320,남산골한옥마을,126.99243835809999,37.560995056100005,bus601
bus,101000321,앰버서더호텔,127.00262538790001,37.5604635042,bus602
bus,101000322,신라호텔,127.0054272005,37.558303400700005,bus603
bus,101000324,동대문디자인플라자.동대문시장,127.0085549376,37.5668754028,bus604
bus,101000325,서울애니메이션센터,126.9872529535,37.558513020700005,bus605
bus,101000326,남산케이블카,126.9836038081,37.5551172888,bus606
bus,101000308,동대문디자인프라자,127.0091304267,37.5677625606,bus607
bus,101000309,방산.중부시장,126.9994422877,37.566856876100005,bus608
bus,101000310,을지로3가,126.99232559149999,37.566534909699996,bus609
bus,101000311,을지로입구,126.981001305,37.5661309607,bus610
bus,101000312,명동입구,126.9823773959,37.564187433200004,bus611
bus,101000314,신당동중앙시장,127.01941662770001,37.5657553187,bus612
bus,101000315,남산오르미,126.98313486010001,37.5581940477,bus613
bus,102000001,한강대교북단.LG유플러스,126.96312095280001,37.5240499441,bus614
bus,102000002,한강대교북단.LG유플러스,126.9631848403,37.5243060629,bus615
bus,102000003,신용산역,126.96620700000001,37.527293,bus616
bus,102000004,신용산역,126.9666192358,37.527920489,bus617
bus,102000005,용산우체국,126.9702350163,37.5314970129,bus618
bus,102000006,용산우체국,126.9705640624,37.532050369400004,bus619
bus,102000007,삼각지역,126.9736858311,37.5351801399,bus620
bus,102000008,삼각지역,126.9741608708,37.5359845015,bus621
bus,102000009,숙대입구역,126.9725377982,37.543295633,bus622
bus,102000010,숙대입구역,126.9722320769,37.5437560216,bus623
bus,102000011,갈월동,126.97223732110001,37.550975599299996,bus624
bus,102000012,갈월동,126.9717081909,37.549533721799996,bus625
bus,102000018,남영역,126.97192718040002,37.542006922,bus626
bus,102000019,남영역,126.97206899999999,37.541823,bus627
bus,102000026,신용산역3번출구,126.9673497525,37.5288895698,bus628
bus,102000317,서울드래곤시티,126.9630603924,37.5321566887,bus629
bus,102000318,용산역3번출구.용산차고지,126.96421456819999,37.5318079061,bus630
bus,102000029,한강대교북단,126.963570714,37.5249689864,bus631
bus,102000030,서계동,126.96934047020001,37.5524743044,bus632
bus,102000031,서계동,126.969221961,37.5516704971,bus633
bus,102000032,청파동,126.9701219815,37.548991616799995,bus634
bus,102000033,청파시장,126.96986262979999,37.548679027,bus635
bus,102000034,숙대입구역.청파동주민센터,126.97077723950001,37.545381247399995,bus636
bus,102000035,숙대입구역.청파동주민센터,126.97041885780001,37.545486157199996,bus637
bus,102000036,남영역,126.97103200000001,37.540813,bus638
bus,102000037,남영역,126.9706761392,37.540570270399996,bus639
bus,102000038,용산전자상가17동,126.96602710020001,37.5337792589,bus640
bus,102000039,용산전자상가19동,126.9657072039,37.533513493499996,bus641
bus,102000040,용산전자상가10동,126.96196405229999,37.5332725045,bus642
bus,102000041,용산전자상가12동,126.9621689745,37.533057407600005,bus643
bus,102000042,용산전자상가.전자랜드,126.9583252146,37.5327790559,bus644
bus,102000043,용산전자상가.전자랜드,126.9583363743,37.5330561177,bus645
bus,102000044,원효대교북단,126.95611098200001,37.5319853728,bus646
bus,102000045,용산경찰서,126.9691858135,37.5405032098,bus647
bus,102000046,용산경찰서,126.9690615428,37.539999464299996,bus648
bus,102000047,용산꿈나무종합타운.원효로우체국,126.96692905340001,37.5386139009,bus649
bus,102000048,용산e편한세상,126.9654677888,37.5374620591,bus650
bus,102000049,남정초등학교,126.96366324440001,37.5363187485,bus651
bus,102000050,원효로2가,126.9629911361,37.536237441,bus652
bus,102000051,원효로2가사거리,126.9610704217,37.5349338369,bus653
bus,102000052,원효로3가,126.95817983020001,37.5340407624,bus654
bus,102000053,원효로3가,126.9583248022,37.533795715100005,bus655
bus,102000054,용암초등학교입구.이태원주공아파트,126.9886645749,37.544115943200005,bus656
bus,102000055,이태원동남산대림아파트.용산동아파트,126.9874799728,37.539874367399996,bus657
bus,102000056,용산한신아파트,126.98710863219999,37.539805473200005,bus658
bus,102000057,해방촌,126.986609087,37.537817739,bus659
bus,102000058,국군재정관리단,126.98684961149999,37.5373177108,bus660
bus,102000059,용산구청,126.9912039368,37.5302839538,bus661
bus,102000060,용산구청,126.9911698907,37.5294095764,bus662
bus,102000061,한강중학교,126.9921715396,37.5254587536,bus663
bus,102000062,한강중학교앞,126.99242877379999,37.5245025908,bus664
bus,102000063,서빙고역1번출구,126.9899502397,37.5200464191,bus665
bus,102000064,장충단로입구,127.002202,37.545795,bus666
bus,102000065,남산예술원,127.00204,37.544437,bus667
bus,102000066,서울중부기술교육원.블루스퀘어,127.0035397782,37.5415776794,bus668
bus,102000067,서울시중부기술교육원.블루스퀘어,127.00317763540001,37.541174899699996,bus669
bus,102000068,순천향대학병원,127.0057302453,37.5364422432,bus670
bus,102000069,순천향대학병원,127.0062993526,37.5356114027,bus671
bus,102000070,순천향대학병원,127.0054993584,37.5357934643,bus672
bus,102000071,순천향대학병원.한남오거리,127.00572904090001,37.5354906847,bus673
bus,102000072,한남5거리,127.0083126426,37.5328478217,bus674
bus,102000073,남산도서관.용산도서관,126.98083500000001,37.552282,bus675
bus,102000074,남산도서관.용산도서관,126.98113401120001,37.5520442521,bus676
bus,102000075,후암약수터,126.98432,37.54869,bus677
bus,102000076,후암약수터,126.9841668777,37.548395263,bus678
bus,102000077,보성여중고입구,126.9858399758,37.5463968458,bus679
bus,102000078,보성여중고입구,126.98563176649999,37.5462598541,bus680
bus,102000079,남산체육관,126.99279019629999,37.5427038827,bus681
bus,102000080,남산체육관,126.992916961,37.5425047481,bus682
bus,102000081,하얏트호텔,126.99613583680001,37.5417535527,bus683
bus,102000082,하얏트호텔,126.9974258076,37.540866103,bus684
bus,102000083,용마루고개(서울자동차고등학교),126.9584647114,37.5406368923,bus685
bus,102000084,용마루고개.효창파크푸르지오아파트,126.9585520334,37.5402999129,bus686
bus,102000085,효창공원앞역.이봉창역사울림관,126.96189710639999,37.5392719714,bus687
bus,102000086,효창공원앞역.이봉창역사울림관,126.9626978558,37.5388284845,bus688
bus,102000087,용산꿈나무종합타운.보건분소,126.9649997667,37.5384268178,bus689
bus,102000088,용산꿈나무종합타운.보건분소,126.964648,37.538295,bus690
bus,102000089,원효로제1동주민센터,126.9669923459,37.5376607152,bus691
bus,102000090,전쟁기념관,126.9768577525,37.5347586674,bus692
bus,102000091,전쟁기념관,126.9753831458,37.534651168,bus693
bus,102000092,녹사평역,126.98511834940001,37.5351069553,bus694
bus,102000093,녹사평역,126.98530469549999,37.5347582183,bus695
bus,102000094,용산구청.이태원시장,126.99047065549999,37.5343830489,bus696
bus,102000095,용산구청.이태원시장,126.9900096398,37.5341127106,bus697
bus,102000096,이태원역1번출구.해밀턴호텔,126.9929957924,37.5345183319,bus698
bus,102000097,이태원역4번출구.해밀턴호텔,126.99342930879999,37.5343539681,bus699
bus,102000098,이태원119안전센터,126.99638700000001,37.53479,bus700
bus,102000099,이태원119안전센터,126.99717993899999,37.534604145,bus701
bus,102000100,한남동주민센터,127.0004667254,37.5370458894,bus702
bus,102000101,한남동주민센터,127.00060425790001,37.5367073033,bus703
bus,102000102,한강진역.블루스퀘어,127.001669577,37.5407264564,bus704
bus,102000103,한강진역.블루스퀘어,127.0020254103,37.5409291837,bus705
bus,102000104,서울역,126.9738943742,37.553616884600004,bus706
bus,102000105,후암3거리,126.9765772255,37.5525408404,bus707
bus,102000106,후암시장,126.9770644706,37.5506891863,bus708
bus,102000107,후암시장,126.9775446282,37.5497467332,bus709
bus,102000108,용산중고,126.97818556719999,37.546659794899995,bus710
bus,102000109,용산중고,126.978350169,37.54679039,bus711
bus,102000110,후암동종점,126.98095881020001,37.5466989277,bus712
bus,102000111,용산중고,126.97756299999999,37.54574,bus713
bus,102000112,남영동주민센터,126.97687034309999,37.545812605500004,bus714
bus,102000113,남영동주민센터,126.9750573355,37.5453624049,bus715
bus,102000114,남영우체국,126.97323538399999,37.5451241168,bus716
bus,102000115,남영우체국,126.97348139479999,37.545368151,bus717
bus,102000116,한남시범아파트,127.0122607528,37.5379429734,bus718
bus,102000117,한남시범아파트,127.01267147870001,37.5377041394,bus719
bus,102000118,한남동,127.00844458450001,37.5339127002,bus720
bus,102000119,한남동,127.00870029129999,37.5337549896,bus721
bus,102000120,이촌동동부센트레빌,126.96600962139999,37.5215595386,bus722
bus,102000121,이촌동두산위브트레지움.한강대우아파트,126.9675282802,37.5215734809,bus723
bus,102000122,이촌1동충신교회앞,126.968480845,37.521283147199995,bus724
bus,102000123,이촌동한가람아파트.이촌역,126.97188427209998,37.520656299,bus725
bus,102000124,이촌동한강맨션.이촌역,126.972709783,37.5201804898,bus726
bus,102000125,신용산초등학교,126.9745085046,37.5198497731,bus727
bus,102000126,신용산초등학교.중경고등학교,126.9762479627,37.5190775256,bus728
bus,102000127,중경고등학교.이촌동강촌아파트,126.9775234206,37.5189178471,bus729
bus,102000128,이촌동점보아파트,126.9784408808,37.518382798699996,bus730
bus,102000129,이촌동현대아파트,126.9787120007,37.5185336834,bus731
bus,102000130,금강병원.반도아파트,126.9811234284,37.517704332,bus732
bus,102000131,서빙고신동아아파트,126.98510536059999,37.517936953,bus733
bus,102000132,서빙고신동아아파트,126.985371435,37.517485967199995,bus734
bus,102000133,만리동고개,126.9628215994,37.551670014,bus735
bus,102000134,손기정체육공원,126.96642302149999,37.5542153265,bus736
bus,102000135,숙대입구역,126.97083985540002,37.544425200300005,bus737
bus,102000136,남영역,126.9709244565,37.5422202391,bus738
bus,102000137,숙명여대도서관앞,126.9672216718,37.5448468654,bus739
bus,102000138,숙명여대도서관앞,126.96644646530001,37.5448412411,bus740
bus,102000139,숙명여대정문,126.96410946469999,37.5449594985,bus741
bus,102000140,숙명여대정문,126.9643096929,37.545130767399996,bus742
bus,102000141,숙명여대후문.이봉창활동터,126.9632996424,37.5460839723,bus743
bus,102000142,효창공원후문,126.9625778991,37.5467910299,bus744
bus,102000143,한겨레신문사입구,126.95919288520001,37.5458806239,bus745
bus,102000144,대한노인회,126.95766844120001,37.543789044899995,bus746
bus,102000145,효창운동장.효창동주민센터,126.9617671315,37.5422095196,bus747
bus,102000146,효창동주민센터.금양초등학교,126.9622336676,37.541623957199995,bus748
bus,102000147,금양초등학교,126.96200074030001,37.5412992546,bus749
bus,102000148,효창공원역,126.9610378658,37.5387860159,bus750
bus,102000149,도원삼성래미안아파트,126.9574338661,37.539776803,bus751
bus,102000150,도원삼성래미안아파트,126.9572103137,37.5396254142,bus752
bus,102000151,중앙하이츠빌라앞,126.9600336494,37.538014460300005,bus753
bus,102000152,중앙하이츠빌라앞,126.95988092270001,37.5379738635,bus754
bus,102000153,용문시장,126.96096798079999,37.5363479221,bus755
bus,102000154,용문시장,126.9613595571,37.5359792047,bus756
bus,102000155,용산전자상가입구,126.9622225151,37.534570167800005,bus757
bus,102000156,용산전자상가입구,126.9619447091,37.5346611171,bus758
bus,102000157,신용산.지하차도,126.963668181,37.5328348806,bus759
bus,102000158,신용산.지하차도,126.96383819319999,37.5325504129,bus760
bus,102000159,신용산역,126.9676784797,37.5300338589,bus761
bus,102000161,용산역,126.9658224646,37.5288666127,bus762
bus,102000162,용산푸르지오써밋,126.96475962,37.5275756153,bus763
bus,102000163,용산푸르지오써밋,126.96457877299999,37.527230928,bus764
bus,102000164,용산역광장앞,126.96558532629999,37.5282680291,bus765
bus,102000165,용산역사박물관.용산철도고등학교,126.9660149714,37.5255972846,bus766
bus,102000166,용산역사박물관.용산철도고등학교,126.9671194025,37.5253057707,bus767
bus,102000167,용산세무서,126.96924402319999,37.5237318415,bus768
bus,102000168,용산세무서,126.970154424,37.5236213922,bus769
bus,102000169,이촌역,126.9739086458,37.5226689183,bus770
bus,102000170,이촌역,126.97402687510001,37.5223634662,bus771
bus,102000171,국립중앙박물관용산가족공원,126.9786512102,37.5208980106,bus772
bus,102000172,국립중앙박물관용산가족공원,126.97995620270001,37.5208754875,bus773
bus,102000173,서빙고역교차로,126.9898965955,37.520427217,bus774
bus,102000174,서빙고초등학교,126.9908893645,37.5211711184,bus775
bus,102000175,한강중학교,126.99136271379999,37.5251140639,bus776
bus,102000176,금호베스트빌앞,126.9907181939,37.5226362582,bus777
bus,102000178,서빙고동,126.9934202794,37.5198043185,bus778
bus,102000179,서빙고동주민센터,126.99488130290001,37.520384004899995,bus779
bus,102000180,동빙고동,126.996690677,37.5208183604,bus780
bus,102000181,동빙고동,126.99703903940001,37.5212625565,bus781
bus,102000182,보광신동아아파트삼성리버빌아파트,127.0020297105,37.5247380028,bus782
bus,102000183,보광동신동아아파트,127.0015149467,37.5256237907,bus783
bus,102000184,보광동주민센터,127.00050461069999,37.5264591178,bus784
bus,102000185,기업은행보광동지점,126.9993070672,37.5280088468,bus785
bus,102000186,기업은행보광동지점,126.99889684600001,37.528182014,bus786
bus,102000187,한국폴리텍1대학,126.99679261719999,37.530195986799995,bus787
bus,102000188,한국폴리텍1대학,126.9965748167,37.530529351300004,bus788
bus,102000189,이태원역.보광동입구,126.9941676251,37.5334777834,bus789
bus,102000190,이태원역.보광동입구,126.99422699719999,37.5338224192,bus790
bus,102000191,한남역.용산노인종합복지관,127.006795706,37.5312239311,bus791
bus,102000192,한남역.용산노인종합복지관,127.00776985799999,37.5306687947,bus792
bus,102000193,이촌119안전센터.성촌공원,126.95294747780001,37.5300799765,bus793
bus,102000194,성촌공원.포르쉐센터용산,126.9546065451,37.5301710306,bus794
bus,102000195,성촌공원.포르쉐센터용산,126.954351091,37.529747416,bus795
bus,102000196,이촌2동주민센터,126.9550639882,37.5277364382,bus796
bus,102000197,이촌2동주민센터,126.9548605606,37.5277028919,bus797
bus,102000198,이촌2동대림아파트.새남터성지,126.9563230524,37.5261753068,bus798
bus,102000199,이촌2동대림아파트.새남터성지,126.95616587190001,37.5260292706,bus799
bus,102000200,서부이촌동입구,126.95949536799999,37.5238640509,bus800
bus,102000201,이촌2동강변아파트,126.9597809746,37.5234462055,bus801
bus,102000202,원효2동산호아파트후문,126.9500126665,37.5322600069,bus802
bus,102000203,청암동강변삼성아파트,126.9482434807,37.5346144292,bus803
bus,102000204,청암동강변삼성아파트,126.9493177472,37.5339679073,bus804
bus,102000205,원효2동산호아파트,126.9505415559,37.5330177683,bus805
bus,102000206,원효2동산호아파트,126.9508277689,37.5331088986,bus806
bus,102000207,원효로풍전아파트,126.9535225314,37.5321286462,bus807
bus,102000208,원효로풍전아파트,126.95451356129999,37.5323687724,bus808
bus,102000209,원효풍전아파트,126.9559182022,37.532742142,bus809
bus,102000210,원효2동주민센터,126.95139616729999,37.5344941039,bus810
bus,102000211,산천동리버힐삼성아파트,126.95119234129999,37.5345003443,bus811
bus,102000212,산천동,126.9536425118,37.5353203855,bus812
bus,102000213,산천동,126.9533822284,37.5354081306,bus813
bus,102000214,신창동세방아파트,126.954957565,37.535708324699996,bus814
bus,102000215,신창동세방아파트,126.95494710790001,37.535830053699996,bus815
bus,102000216,남이장군사당,126.9579937738,37.5366590687,bus816
bus,102000217,남이장군사당,126.9575932164,37.5367544611,bus817
bus,102000218,새마을금고,126.9595337638,37.5370716239,bus818
bus,102000219,새마을금고,126.9591968331,37.5371492138,bus819
bus,102000225,순천향병원입구,127.0067505734,37.5326305473,bus820
bus,102000226,남산서울타워,126.9911947846,37.5510144684,bus821
bus,102000227,청심경로당,126.9506907463,37.5338879189,bus822
bus,102000228,삼성테마트,126.9503849242,37.5337466904,bus823
bus,102000229,서빙고동금호베스트빌,126.99099101110001,37.5226137862,bus824
bus,102000230,한남동하이페리온,127.0055474264,37.5278439771,bus825
bus,102000231,서빙고역1번출구,126.98948550979999,37.5200345091,bus826
bus,102000232,문배동이안아파트앞,126.971060418,37.5388699959,bus827
bus,102000233,갈월동4호선숙대입구,126.9716591639,37.5463858567,bus828
bus,102000234,삼각지역11번출구,126.974548,37.536204,bus829
bus,102000236,숙대입구,126.9705229419,37.5445305498,bus830
bus,102000237,원효대교북단,126.9556102561,37.5321383559,bus831
bus,102000238,문배동이안아파트앞,126.9707994501,37.5383644982,bus832
bus,102000240,순천향병원입구,127.00699611639999,37.532694511,bus833
bus,102000241,숙명여대입구,126.9696434774,37.5448844577,bus834
bus,102000243,서빙고초등학교,126.99060996620001,37.5208412941,bus835
bus,102000245,한강대교전망카페,126.9608161519,37.5213307725,bus836
bus,102000246,한강대교전망카페,126.96134349969999,37.5212359951,bus837
bus,102000247,노들섬,126.9586051825,37.5175161768,bus838
bus,102000248,노들섬,126.959037665,37.5173638437,bus839
bus,102000249,용암초등학교.이태원2동주민센터,126.990733,37.544672999999996,bus840
bus,102000250,용암초등학교.이태원2동주민센터,126.9909320571,37.5448496669,bus841
bus,102000266,효창공원삼거리.윤봉길의사등묘역,126.9638368968,37.5446070869,bus842
bus,102000286,서울역공항철도15번출구.국립극단,126.9688467509,37.5530779085,bus843
bus,102000297,용산꿈나무종합타운,126.9672402984,37.538486933,bus844
bus,102000316,남산도서관,126.9818461928,37.552343666999995,bus845
bus,102900010,하얏트호텔,126.9969932623,37.5406603781,bus846
bus,102900065,한신아파트,126.9866957386,37.5389827262,bus847
bus,102900009,순천향병원,127.00481573540002,37.5332487951,bus848
bus,102900066,용암경로당입구,126.9869183825,37.540596615,bus849
bus,102900083,한남오거리,127.00665669909999,37.5330901125,bus850
bus,102900079,가야랑앞,126.99360407389999,37.540195277399995,bus851
bus,102900008,용암한신아파트,126.98743528799999,37.5420771725,bus852
bus,102900070,효창공원후문,126.9608920893,37.5470688427,bus853
bus,102900007,디지텍고등학교앞,126.99162604290001,37.5398031767,bus854
bus,102900006,우리들가정의원,126.98779496459998,37.5432315144,bus855
bus,102900097,도원삼성래미안아파트101동앞,126.95623208090001,37.539068590599996,bus856
bus,102900080,성도약국,126.9895541036,37.5394506828,bus857
bus,102900005,남산교회입구,126.9866471968,37.5446713415,bus858
bus,102900003,신애교회,126.9584869002,37.5455190385,bus859
bus,102900002,시장,126.9885515774,37.538922547199995,bus860
bus,102900001,해방촌오거리,126.9851474983,37.54572995,bus861
bus,102900085,보광동주민센터,127.00009730120001,37.5261473387,bus862
bus,102900035,대한노인회중앙회,126.9576286965,37.5440368054,bus863
bus,102900096,도원삼성래미안아파트101동앞,126.9562965631,37.5390222559,bus864
bus,102900034,신흥교회앞,126.98338678309999,37.5447457188,bus865
bus,102900033,군인아파트,126.9963176555,37.526004062,bus866
bus,102900032,원효사.백범김구기념관,126.9585663043,37.543140173299996,bus867
bus,102900064,녹사평역,126.9858713342,37.5350110363,bus868
bus,102900031,큰빛의집앞,126.9819982464,37.5445481753,bus869
bus,102900075,몬드리안서울이태원,126.99262636969999,37.5285305142,bus870
bus,102900098,도원삼성래미안아파트,126.9576859474,37.539687949699996,bus871
bus,102900063,후암동종점,126.9813662289,37.5467007949,bus872
bus,102900076,용산구청,126.9914494622,37.5303191147,bus873
bus,102900030,용산고등학교,126.9795092308,37.5461364014,bus874
bus,102900077,외빈차고,126.9921711943,37.531729383000005,bus875
bus,102900029,효창공원앞역.이봉창역사울림관,126.9614323385,37.5396710223,bus876
bus,102900028,갈월동사회복지회관,126.9740851958,37.5453901296,bus877
bus,102900078,청화아파트,126.99513227889999,37.531416787,bus878
bus,102000303,동작대로(가상),126.9829602272,37.515908584099996,bus879
bus,102900027,용산경찰서,126.969805735,37.5410233025,bus880
bus,102900026,숙대역7번출구,126.97229676379999,37.5434757805,bus881
bus,102900025,보광동삼거리,126.9968250706,37.5307329855,bus882
bus,102900072,중앙하이츠빌라,126.9594786383,37.5385683269,bus883
bus,102900024,원효우체국,126.967353845,37.538967266,bus884
bus,102900023,보광초등학교,126.99677639069999,37.5313430275,bus885
bus,102900022,용문동시장.새마을금고,126.95963432479999,37.5373482951,bus886
bus,102900021,수미용실,126.9984023383,37.5313727969,bus887
bus,102900073,용문동주민센터,126.9591190202,37.538147390700004,bus888
bus,102900020,문배어린이공원,126.9697251251,37.5369383946,bus889
bus,102900019,문배어린이공원,126.96959003719999,37.5371431249,bus890
bus,102900018,영동김밥,127.00077393459999,37.5310357946,bus891
bus,102000301,한강대교(가상),126.9606611648,37.5217277175,bus892
bus,102900017,도깨비시장,127.002245989,37.5308546551,bus893
bus,102900016,리버힐빌라앞,127.0008836966,37.5317260348,bus894
bus,102900015,신용산역,126.9674544999,37.529916654699996,bus895
bus,102900013,보광교회,126.99918645,37.5322730017,bus896
bus,102900012,용산우체국,126.9703153999,37.531376286,bus897
bus,102900011,숙대역5번출구,126.97251149719999,37.54403813,bus898
bus,102900059,이슬람사원,126.9979655399,37.5329884585,bus899
bus,102900058,삼각지역,126.9732731006,37.5345065492,bus900
bus,102900068,갈월동,126.9720930552,37.5463241118,bus901
bus,102900057,보광초등학교후문앞,126.9956979823,37.5330902217,bus902
bus,102000305,반포대교(가상),126.99400556389999,37.518878495500005,bus903
bus,102900056,동자경로당,126.9741955461,37.5502867059,bus904
bus,102900055,이태원역앞,126.99570018280001,37.5341805498,bus905
bus,102900054,녹사평역.용산구청,126.9871837649,37.5351395786,bus906
bus,102900053,후암시장,126.9768043541,37.5500664789,bus907
bus,102900051,후암동주민센터앞,126.9777057507,37.5483644838,bus908
bus,102900084,제일기획,126.9984396046,37.534870858400005,bus909
bus,102900081,대성교회,126.9884520307,37.5386999666,bus910
bus,102900050,용산고,126.9789524928,37.5459083263,bus911
bus,102900049,성도약국,126.98943078239999,37.539277661199996,bus912
bus,102900048,후암동종점,126.9813594882,37.5465016517,bus913
bus,102900047,디지텍고등학교앞,126.9918569023,37.5397139842,bus914
bus,102900046,큰빛의집앞,126.9819077271,37.544483282600005,bus915
bus,102900082,가야랑앞,126.9937523252,37.5400889559,bus916
bus,102900045,신흥교회앞,126.98338794200001,37.5446231699,bus917
bus,102900044,해방촌오거리,126.98539647870001,37.5457029481,bus918
bus,102900043,남산교회입구,126.9866223212,37.5445505919,bus919
bus,102900042,우리들가정의원,126.9876591627,37.5432423134,bus920
bus,102900041,용암한신아파트,126.98741373440001,37.5423880484,bus921
bus,102900040,용암경로당입구,126.9869601654,37.5410985304,bus922
bus,102900039,한신아파트,126.98655768200001,37.5389881171,bus923
bus,102900089,갑을빌딩,126.9720388292,37.5490958683,bus924
bus,102900091,리버힐삼성아파트후문,126.9487207623,37.5349462412,bus925
bus,102900038,만리시장입구,126.9630412782,37.5515678017,bus926
bus,102900037,배문중고등학교,126.9636168092,37.5503749309,bus927
bus,102900036,청파초등학교,126.9633754859,37.5485834792,bus928
bus,102000263,동부이촌동,126.9726729953,37.520139253,bus929
bus,102000262,강촌APT,126.9761942244,37.5191000398,bus930
bus,102000272,남산그랜드하얏트호텔,126.9973678608,37.539825971599996,bus931
bus,102900062,청파초등학교,126.96350569229999,37.5484699816,bus932
bus,102000271,청암자이아파트,126.9470270341,37.5345359852,bus933
bus,102900061,배문중고교,126.963728852,37.550381273,bus934
bus,102900060,만리시장입구,126.96314530069999,37.5517759871,bus935
bus,102900090,청암자이아파트,126.948603174,37.5348119266,bus936
bus,102000273,신동아APT,126.9853623627,37.5175986035,bus937
bus,102000257,신동아APT,126.98530347270001,37.517922091100004,bus938
bus,102000256,강촌APT,126.97731290690001,37.5189057287,bus939
bus,102000255,동부이촌동,126.9718175157,37.5206779095,bus940
bus,102000274,이촌동두산위브트레지움,126.9659919434,37.521493673,bus941
bus,102000275,이촌동두산위브트레지움,126.9675735406,37.521528359499996,bus942
bus,102000276,이촌현대아파트.금강병원,126.98104084120001,37.517718736300004,bus943
bus,102000277,이촌현대아파트.금강병원,126.978748041,37.5185081173,bus944
bus,102000278,한남역,127.0067323413,37.531206813800004,bus945
bus,102900092,도원삼성래미안아파트단지내,126.95538813530001,37.538198303899996,bus946
bus,102900086,한남동주민센터,127.000605305,37.5341153841,bus947
bus,102900088,용산CJ나인파크,126.9695530125,37.5358706647,bus948
bus,102900087,용산e편한세상,126.96722120049999,37.5344621995,bus949
bus,102000282,이집트대사관.한남더힐아파트,127.011274684,37.535256866,bus950
bus,102000281,이집트대사관.한남더힐아파트,127.0114310392,37.5362408844,bus951
bus,102000283,한남역,127.00774382540001,37.5305849943,bus952
bus,102000285,한남동,127.00857322700001,37.5337569266,bus953
bus,102000284,한남동,127.00856566370001,37.533963153,bus954
bus,102900095,필리핀대사관,126.995093255,37.5406999627,bus955
bus,102900094,필리핀대사관,126.99516002959999,37.5405702075,bus956
bus,102000310,전쟁기념관,126.9734851953,37.538401465300005,bus957
bus,102000311,용산역,126.9658972377,37.5290767593,bus958
bus,102000312,국립중앙박물관,126.9785496415,37.5208476177,bus959
bus,102000313,이태원,126.9904416929,37.5343385918,bus960
bus,101000323,남산서울타워,126.9909861872,37.5511419911,bus961
bus,102000314,하얏트호텔,126.9972013482,37.5408918783,bus962
bus,101000327,힐튼호텔,126.9772255151,37.5547770692,bus963
bus,102000315,남산도서관,126.9815510765,37.5520885865,bus964
bus,103000001,답십리역사거리,127.05439617030001,37.5654496127,bus965
bus,103000002,청년회의소.서울새활용플라자,127.0604823356,37.5620353607,bus966
bus,103000003,장한평역,127.06609265120001,37.5611899215,bus967
bus,103000004,상왕십리역,127.02907485989999,37.5643358035,bus968
bus,103000005,상왕십리역,127.02868128690001,37.5646936321,bus969
bus,103000006,왕십리센트라스아파트,127.0248051787,37.565212996599996,bus970
bus,103000007,왕십리교회,127.0236794054,37.566630044,bus971
bus,103000509,뉴타운아파트,127.0269697789,37.564872395900004,bus972
bus,103000008,청계벽산아파트.텐즈힐아파트,127.0303755149,37.5688584755,bus973
bus,103000009,청계벽산아파트.텐즈힐아파트,127.0300384029,37.5679598186,bus974
bus,103000010,왕십리도선동주민센터,127.02464467739999,37.5676164369,bus975
bus,103000011,왕십리2동주민센터,127.0332625935,37.56244961,bus976
bus,103000012,코스모타워.서울신용보증재단성동지점,127.032902865,37.5629822568,bus977
bus,103000014,성동구청,127.03591642139999,37.563126585300004,bus978
bus,103000015,상왕십리역,127.03024464010001,37.5648716583,bus979
bus,103000016,상왕십리역.센트라스아파트,127.02997684479999,37.565860106500004,bus980
bus,103000515,신금호역4번출구,127.02053108129999,37.5541428107,bus981
bus,103000017,마장동주민센터,127.04457376,37.5673234964,bus982
bus,103000018,마장역,127.0422829487,37.5655987334,bus983
bus,103000019,성동노인복지관,127.0415861333,37.5649375925,bus984
bus,103000020,마장축산물시장,127.0380207293,37.5709505267,bus985
bus,103000021,마장축산물시장,127.03751135280001,37.5702590064,bus986
bus,103000022,도선사거리,127.0369539875,37.5670208209,bus987
bus,103000023,도선사거리,127.0364845717,37.5666487791,bus988
bus,103000024,마장동금호아파트,127.041859032,37.5630713327,bus989
bus,103000025,마장동금호아파트,127.0415811922,37.562157722600006,bus990
bus,103000026,한양대부속고등학교,127.04141316209999,37.5609241011,bus991
bus,103000027,한양대부속고등학교,127.0411546041,37.5603881249,bus992
bus,103000028,한양대앞.한양시장,127.0409668475,37.5585823987,bus993
bus,103000029,한양대앞,127.0406535419,37.558525460700004,bus994
bus,103000030,한양대정문,127.04312864319999,37.5563883665,bus995
bus,103000031,한양대정문앞,127.0431384444,37.5569939038,bus996
bus,103000032,무학여고앞,127.0342332122,37.557854001399996,bus997
bus,103000033,무학여고,127.03386726149999,37.557895311799996,bus998
bus,103000034,왕십리역,127.03619202280001,37.5599473134,bus999
bus,103000035,왕십리역,127.0362669183,37.5603365628,bus1000
bus,103000036,왕십리역,127.03468725040001,37.5607235444,bus1001
bus,103000037,행당1동주민센터.성동소방서,127.03840399639999,37.5582671772,bus1002
bus,103000038,서울숲삼부아파트,127.0379492742,37.558723076599996,bus1003
bus,103000039,응봉동주민센터,127.0335007802,37.5533989566,bus1004
bus,103000040,응봉동주민센터,127.0334386918,37.5537612141,bus1005
bus,103000041,응봉사거리,127.0344580408,37.555291880300004,bus1006
bus,103000042,응봉동현대아파트,127.0305745164,37.5497324573,bus1007
bus,103000043,응봉동현대아파트,127.0309,37.550222,bus1008
bus,103000044,대현산배수지공원입구,127.0200356974,37.5564740008,bus1009
bus,103000046,신금호역,127.020117586,37.5556051708,bus1010
bus,103000047,신금호역,127.0199214015,37.5556768698,bus1011
bus,103000048,금호고등학교,127.02195505379999,37.5534780746,bus1012
bus,103000049,금호고등학교.금호자이1차아파트입구,127.0229328751,37.553107725100006,bus1013
bus,103000050,금호동벽산아파트,127.0256791281,37.5511643996,bus1014
bus,103000051,래미안하이리버아파트,127.0254234439,37.5514582119,bus1015
bus,103000052,금호사거리,127.02606314,37.5488791385,bus1016
bus,103000053,금호사거리,127.0259773298,37.5494639682,bus1017
bus,103000054,금남시장앞.백범학원터,127.0218686315,37.5480852238,bus1018
bus,103000055,금남시장앞.백범학원터,127.022487755,37.5482887551,bus1019
bus,103000056,금호역,127.01626699260001,37.5477283731,bus1020
bus,103000057,금호역,127.0154795051,37.5485477051,bus1021
bus,103000058,금옥초등학교앞,127.01989231459999,37.5469673139,bus1022
bus,103000059,금옥초등학교앞,127.0182356475,37.5462572048,bus1023
bus,103000060,힐스테이트서울숲리버아파트,127.0270575925,37.5478877101,bus1024
bus,103000061,삼성래미안아파트앞,127.02751272110001,37.548349866799995,bus1025
bus,103000062,옥수삼성아파트.래미안옥수리버젠,127.0148475565,37.5436204852,bus1026
bus,103000063,옥수삼성아파트.래미안옥수리버젠,127.0146552078,37.5438034317,bus1027
bus,103000064,미타사입구,127.0168373163,37.5448556208,bus1028
bus,103000065,래미안옥수리버젠.옥수중앙교회,127.0148446166,37.545915576700004,bus1029
bus,103000066,래미안옥수리버젠.옥수중앙교회,127.014698,37.545782,bus1030
bus,103000506,옥수파크힐스아파트앞,127.01303894879999,37.5471160945,bus1031
bus,103000507,옥수파크힐스아파트앞,127.01301599950001,37.547020434400004,bus1032
bus,103000069,옥수동종점,127.0125833169,37.5493374753,bus1033
bus,103000070,옥정중학교입구,127.011302745,37.5409040726,bus1034
bus,103000071,옥정중학교입구,127.0109994635,37.5408770683,bus1035
bus,103000072,성수1가1동새마을금고,127.0495477418,37.5382204647,bus1036
bus,103000073,성수1가새마을금고,127.0495105089,37.5383306996,bus1037
bus,103000074,천주교성수동성당앞,127.04613935489999,37.5393704675,bus1038
bus,103000075,천주교성수동성당앞,127.0460740289,37.539305526,bus1039
bus,103000076,뚝도아리수정수센터수도박물관,127.044202626,37.5409772406,bus1040
bus,103000077,뚝도아리수정수센터수도박물관,127.04399,37.541407,bus1041
bus,103000078,서울숲역2번출구,127.0447086131,37.5429317268,bus1042
bus,103000079,서울숲역3번출구,127.0444980594,37.5430629438,bus1043
bus,103000080,성동구민종합체육센터,127.04489608909999,37.546071974499995,bus1044
bus,103000081,성동구민종합체육센터,127.0445340491,37.5464979897,bus1045
bus,103000082,성수공고앞,127.05031495909999,37.5399724321,bus1046
bus,103000083,성수공고앞,127.050759594,37.540038832600004,bus1047
bus,103000084,경일초등학교입구,127.0463723692,37.5410800235,bus1048
bus,103000085,경일초등학교입구,127.04601612569999,37.5413797453,bus1049
bus,103000086,성동교남단,127.0444566298,37.5495163646,bus1050
bus,103000087,성동교남단,127.04396276959999,37.550507516399996,bus1051
bus,103000088,상원,127.0460506002,37.5514371326,bus1052
bus,103000089,상원,127.0466618972,37.551747737,bus1053
bus,103000090,영동대교북단,127.0607392694,37.5369424226,bus1054
bus,103000091,경수중학교,127.0624288917,37.5397602612,bus1055
bus,103000092,성수119안전센터,127.060132085,37.5373416869,bus1056
bus,103000093,성수119안전센터,127.059997,37.537532,bus1057
bus,103000094,경수중학교,127.0570118184,37.5381650347,bus1058
bus,103000095,경수중학교,127.05729820389999,37.5382865442,bus1059
bus,103000096,뚝도시장,127.0553996133,37.5385866142,bus1060
bus,103000097,뚝도시장,127.05525878430001,37.538850729699995,bus1061
bus,103000098,성원중성수동이마트앞,127.05342646959998,37.5390939396,bus1062
bus,103000099,성원중성수동이마트앞,127.05330451120001,37.5393606931,bus1063
bus,103000100,서울숲지구대앞,127.0523417008,37.537867716,bus1064
bus,103000101,서울숲지구대앞,127.0522588868,37.538050916799996,bus1065
bus,103000102,뚝도시장구길,127.05527,37.537192,bus1066
bus,103000103,뚝도시장구길,127.05492675309999,37.5375520694,bus1067
bus,103000104,성수동진주타운,127.0574889191,37.536617437,bus1068
bus,103000105,성수동진주타운,127.0574923078,37.536759089,bus1069
bus,103000106,영동대교,127.059982,37.536356,bus1070
bus,103000107,영동대교,127.06006565,37.5364382069,bus1071
bus,103000108,화양사거리,127.06662062790001,37.5471858684,bus1072
bus,103000109,성수사거리.성수초등학교,127.06416129729999,37.5428218897,bus1073
bus,103000110,서울효사랑병원,127.0632745484,37.5412636389,bus1074
bus,103000111,성수2가3동주민센터,127.0553883888,37.5496243675,bus1075
bus,103000112,제인병원,127.0568366874,37.5493511273,bus1076
bus,103000113,성동세무서앞,127.0621853946,37.5479946812,bus1077
bus,103000114,성동세무서,127.064337342,37.548239128,bus1078
bus,103000115,송정동서울숲아이파크,127.0692473283,37.551825481,bus1079
bus,103000116,송정동건영아파트,127.07115,37.555205,bus1080
bus,103000117,군자교남단,127.0724414557,37.5575371596,bus1081
bus,103000118,신답역,127.0475025717,37.570211076999996,bus1082
bus,103000119,용답동.로데오거리.답십리역,127.0539458148,37.5657033305,bus1083
bus,103000120,서울교통공사.서울새활용플라자,127.0569134234,37.5620495039,bus1084
bus,103000121,뚝섬서울숲,127.03660119799999,37.544618041,bus1085
bus,103000122,뚝섬서울숲,127.0363946274,37.5456718598,bus1086
bus,103000125,사근동하이츠아파트앞,127.0486060331,37.5611984155,bus1087
bus,103000126,사근동하이츠아파트앞,127.0486881757,37.561306176,bus1088
bus,103000127,사근동주민센터,127.04564891780001,37.560814419699994,bus1089
bus,103000128,사근동주민센터,127.0457112392,37.5609315252,bus1090
bus,103000129,사근고개,127.0445908781,37.561161707800004,bus1091
bus,103000130,사근고개,127.0445101518,37.5612555615,bus1092
bus,103000131,한양지구대,127.04202111469999,37.560214351300004,bus1093
bus,103000132,한양지구대,127.0419242341,37.5602445802,bus1094
bus,103000133,사근동벽산아파트,127.04992690559999,37.5601892041,bus1095
bus,103000134,뚝섬역8번출구,127.04550951719999,37.5476928251,bus1096
bus,103000135,뚝섬역2번출구,127.046846,37.547575,bus1097
bus,103000136,뚝섬역5번출구,127.0492754339,37.5464803389,bus1098
bus,103000137,뚝섬역4번출구,127.04927564440001,37.5468001934,bus1099
bus,103000138,성수역1번출구,127.0538293527,37.5454196769,bus1100
bus,103000139,SK테크노빌딩앞,127.050228,37.545888,bus1101
bus,103000140,SK테크노빌딩앞,127.0500259308,37.545769848,bus1102
bus,103000141,경동초등학교입구,127.04948093670001,37.543772429200004,bus1103
bus,103000142,경동초등학교입구,127.049212934,37.5433912967,bus1104
bus,103000143,경일초등학교앞,127.0482363415,37.5407684319,bus1105
bus,103000144,경일초등학교앞,127.0481685479,37.540919377,bus1106
bus,103000145,한양여대앞,127.0503,37.559509999999996,bus1107
bus,103000150,도선고등학교.꽃재교회,127.0277827978,37.5670932118,bus1108
bus,103900215,성수역4번출구,127.0545807481,37.544787860700005,bus1109
bus,103000152,리버하우스,127.0510060889,37.5509002648,bus1110
bus,103000153,리버하우스,127.05069054469999,37.5512302013,bus1111
bus,103900213,성수사거리,127.062352,37.542562,bus1112
bus,103900214,성수사거리,127.06236212479999,37.5427980761,bus1113
bus,103000156,성동제일새마을금고,127.04710329790001,37.560811596,bus1114
bus,103000157,성동제일새마을금고,127.0473012813,37.560884127,bus1115
bus,103000159,청계9가.텐즈힐2단지 정문앞,127.0255654313,37.570749453000005,bus1116
bus,103000162,뚝섬서울숲,127.0375618762,37.5434527836,bus1117
bus,103000163,서울숲1번출입구,127.0426958799,37.5422230617,bus1118
bus,103000164,서울숲1번출입구,127.042974358,37.5419781098,bus1119
bus,103000165,용답휴식공원,127.04805382309999,37.569312111100004,bus1120
bus,103000166,용답휴식공원,127.04793732450001,37.569554183899996,bus1121
bus,103000167,성수2가3동주민센터,127.0542376417,37.5504251323,bus1122
bus,103000168,극동그린아파트앞,127.0113916813,37.5420008413,bus1123
bus,103000169,마장역,127.0430338383,37.5663469729,bus1124
bus,103000170,행당신동아.행당푸르지오아파트,127.0340192689,37.5561408382,bus1125
bus,103000171,숭신초등학교,127.02819585799999,37.5671676226,bus1126
bus,103000172,극동아파트,127.02393382790001,37.5580974527,bus1127
bus,103000173,풍림아파트,127.0239062231,37.5591427175,bus1128
bus,103000174,벽산아파트,127.0256885739,37.555602288,bus1129
bus,103000175,대림아파트,127.0249260274,37.5565738309,bus1130
bus,103000176,행당역,127.0290982639,37.557000896,bus1131
bus,103000177,행당역,127.02876439069999,37.557079373,bus1132
bus,103000178,무학여고,127.0330162995,37.5583911544,bus1133
bus,103000179,극동그린아파트,127.01190495799999,37.542064625500004,bus1134
bus,103000183,성수동차고지,127.055682,37.535793,bus1135
bus,103000185,제민약국,127.05851851770001,37.5365921538,bus1136
bus,103000186,왕십리자이.신당현대아파트,127.02363000000001,37.560846999999995,bus1137
bus,103000187,왕십리자이.신당현대아파트,127.024102104,37.561151900700004,bus1138
bus,103000188,제민약국,127.05848799999998,37.536507,bus1139
bus,103000189,우리은행화양동지점,127.0661376875,37.548116420999996,bus1140
bus,103000191,황학교.텐즈힐몰,127.02360372860001,37.5700517505,bus1141
bus,105000455,마장동주민센터,127.0446425019,37.567063213699996,bus1142
bus,103000293,왕십리광장.왕십리역7번출구,127.03688882690001,37.5611283256,bus1143
bus,103000292,왕십리광장.왕십리역4번출구,127.03713335200001,37.561364441,bus1144
bus,103000297,한양대동문앞,127.04967599620001,37.5556432919,bus1145
bus,103000295,왕십리도선동주민센터,127.0244126998,37.5678169566,bus1146
bus,103000296,한양여대앞,127.05061933799999,37.5592243864,bus1147
bus,103000505,행당중학교,127.04302472260001,37.553780868800004,bus1148
bus,103000516,살곶이체육공원앞,127.05101917,37.556359043200004,bus1149
bus,103900152,송정동현대아이파크아파트,127.0686200823,37.552187116700004,bus1150
bus,103900149,극동아파트5동,127.01107901549999,37.5431595377,bus1151
bus,103900142,대우아파트관리실,127.01998394969999,37.5462141244,bus1152
bus,103900022,신금호역,127.02049082090001,37.5545931778,bus1153
bus,103900150,옥수역,127.016816639,37.5414827461,bus1154
bus,104900130,송정동자치회관,127.0687627665,37.550885491500004,bus1155
bus,103900143,대우아파트후문,127.0216589278,37.5469390691,bus1156
bus,103900025,금호1가동주민센터,127.02219553,37.5551290207,bus1157
bus,103900116,왕십리민자역사,127.0378535089,37.5618426928,bus1158
bus,103900024,무쇠막,127.0246947943,37.545277754000004,bus1159
bus,103900295,송정어린이집,127.0677474298,37.5490025833,bus1160
bus,103900026,대경생활과학고등학교,127.01753704299999,37.5559714265,bus1161
bus,103900120,금북초등학교.e편한세상금호105동,127.0237361041,37.5555378179,bus1162
bus,103900065,무학여고,127.0339123541,37.5574916088,bus1163
bus,103900145,힐스테이트서울숲리버,127.0253856278,37.546744591199996,bus1164
bus,104900131,성수SKV1센터1동,127.06558117790001,37.545816932,bus1165
bus,103900067,극동아파트상가,127.0121008716,37.5429197459,bus1166
bus,103900027,금호4가동주민센터.대도빌딩,127.0225635106,37.5480526537,bus1167
bus,103900028,화단삼거리,127.0198711709,37.5483198616,bus1168
bus,103900068,금호어린이집,127.0186201668,37.5567335018,bus1169
bus,103900029,논골.금호벽산아파트.성동공유센터,127.0253044367,37.5555394907,bus1170
bus,103900117,행당서울숲푸르지오상가앞,127.0338926682,37.5556173736,bus1171
bus,103900300,법학학술정보관,127.0485750382,37.5570403271,bus1172
bus,103900296,성수이비즈센터,127.0630583777,37.5465773977,bus1173
bus,103900069,한남하이츠아파트,127.01159231129999,37.540054310500004,bus1174
bus,103900070,금호사거리,127.0252690969,37.5480015945,bus1175
bus,103900031,금호산입구,127.0195736658,37.5567220851,bus1176
bus,103900032,한진아파트후문,127.0269971479,37.5560183016,bus1177
bus,103900071,신동아아파트후문,127.032693675,37.554894681,bus1178
bus,103900301,올림픽체육관맞은편,127.0492908049,37.556934163200005,bus1179
bus,103900297,경수중학교입구,127.0600882973,37.5435110445,bus1180
bus,103900146,제일감리교회,127.0269036684,37.547866119,bus1181
bus,103900133,신금호역,127.019636929,37.5543806178,bus1182
bus,103900302,제3법학관,127.04863676069999,37.556233909,bus1183
bus,103900034,행당서울숲푸르지오109동앞,127.0317164122,37.5544534388,bus1184
bus,103900035,벽산아파트정문,127.02527915649999,37.552657501599995,bus1185
bus,103900298,성수역2번출구,127.05763906870001,37.5442691048,bus1186
bus,103900037,옥수종합사회복지관,127.01285194569999,37.5408804856,bus1187
bus,103900126,응봉동현대아파트,127.0307682168,37.5498025299,bus1188
bus,103900038,행당2동주민센터,127.03065376309999,37.5577375973,bus1189
bus,103900072,응봉경로당앞,127.031642249,37.5526279318,bus1190
bus,103900040,금호119안전센터,127.02473079159999,37.5541870617,bus1191
bus,103900299,경동초등학교입구,127.0511563146,37.5458938897,bus1192
bus,103900041,옥수삼성아파트,127.0139484516,37.540635263,bus1193
bus,103900074,현대공업사앞,127.0325677907,37.549950728,bus1194
bus,103900134,두산상가후문.106동,127.0167386956,37.5491853986,bus1195
bus,103900075,중앙병원,127.0193175559,37.5519612784,bus1196
bus,103900019,무학중학교.무학여고,127.03312827709999,37.5582100032,bus1197
bus,103900039,만물상회앞,127.03122343620001,37.552827269,bus1198
bus,103900076,논골사거리,127.02481242309999,37.5553150263,bus1199
bus,103900078,응봉초등학교.대림아파트,127.0334306978,37.5510678445,bus1200
bus,103900043,한신아파트,127.01929574040001,37.5507538149,bus1201
bus,103900303,올림픽체육관앞,127.04963038540001,37.5570151108,bus1202
bus,103900042,상봉노인정앞,127.03028319299999,37.552873943499996,bus1203
bus,105000454,논골신협.대림아파트후문,127.0245743869,37.5577029753,bus1204
bus,103900079,옥수삼성아파트,127.0143207799,37.5407532621,bus1205
bus,103900045,응봉역.광희중,127.03443390860001,37.5520425408,bus1206
bus,103900080,우리은행.백범학원터,127.0211726304,37.5480069051,bus1207
bus,103900082,금호공원,127.01957500879999,37.5496769604,bus1208
bus,103900122,대현산체육관입구,127.02985418729999,37.5530799025,bus1209
bus,103900304,한양대학교경영대학,127.04852979709999,37.5570853955,bus1210
bus,103900083,지하철2호선성수역,127.0546617999,37.5447702802,bus1211
bus,103900084,옥수종합사회복지관,127.01322764870001,37.540886751799995,bus1212
bus,103900144,대우아파트입구,127.0191632324,37.5459834381,bus1213
bus,103900020,원형화단,127.0194898441,37.548592957,bus1214
bus,103900085,성동구청,127.0364064374,37.564135551199996,bus1215
bus,103900047,금봉어린이집.또또와마트,127.02880906540001,37.5529061904,bus1216
bus,103900305,한양대병원후문,127.0419651568,37.5600051066,bus1217
bus,103900048,경수중학교입구,127.0596206188,37.5433629833,bus1218
bus,103900049,옥정중학교,127.01133223229999,37.5413329917,bus1219
bus,103900086,응봉사거리,127.0345427336,37.5548674402,bus1220
bus,103900051,천은교회.성동청소년상담복지센터,127.0267906941,37.554695676,bus1221
bus,103900151,극동아파트상가,127.01236794270001,37.5429116083,bus1222
bus,103900088,무학여고,127.03425541860001,37.557718585399996,bus1223
bus,103900089,한전입구,127.03511853219999,37.5662652006,bus1224
bus,103900050,논골입구.성동공유센터,127.0255715552,37.555549641700004,bus1225
bus,103900090,극동아파트7동,127.0127539602,37.5436189277,bus1226
bus,103900112,성동보건소,127.0331862828,37.566494637,bus1227
bus,103900123,행당역.대림아파트정문,127.0286715654,37.557049659499995,bus1228
bus,103900052,청계벽산아파트,127.03037053620001,37.568262437,bus1229
bus,103900124,논골.e편한세상금호114동,127.02460412209999,37.55519162,bus1230
bus,103900113,코스모타워,127.03329038209999,37.5627939863,bus1231
bus,103900091,화단앞,127.019653956,37.5486244682,bus1232
bus,103900092,성동사회복지관.청계천박물관,127.03347778450001,37.570303471500004,bus1233
bus,103900125,금호119안전센터,127.02457237670001,37.5542636796,bus1234
bus,103900093,왕약국,127.06554726479999,37.5483411874,bus1235
bus,103900114,상왕십리역,127.0302513803,37.5647437014,bus1236
bus,103900094,금호공원,127.0197741925,37.5496507955,bus1237
bus,103900095,성동구도시관리공단.서울시시설관리공단,127.0368611826,37.5718289131,bus1238
bus,103900131,e편한세상금호117동,127.02468218930001,37.5526576279,bus1239
bus,103900053,왕십리자이.신당현대아파트,127.0236902472,37.5608470716,bus1240
bus,103900096,중앙슈퍼,127.0665317949,37.5495156648,bus1241
bus,103900054,한신아파트,127.01940778790001,37.550758302,bus1242
bus,103900056,금호고등학교,127.0235529542,37.5530983943,bus1243
bus,103900111,극동.풍림아파트,127.0236410045,37.5590448945,bus1244
bus,103900057,GS25,127.06716176280001,37.5503046673,bus1245
bus,103900097,중앙병원앞,127.019471524,37.5521279557,bus1246
bus,103900098,도선동사거리,127.03653266549999,37.5667675811,bus1247
bus,103900058,논골신협.대림아파트후문,127.0245188619,37.5575119549,bus1248
bus,103900099,송정동자치회관입구,127.0678257351,37.5511350971,bus1249
bus,103900115,성동구청,127.0360410344,37.563354049000004,bus1250
bus,103900100,논골사거리,127.02477420870001,37.5561260191,bus1251
bus,103900101,신금호역,127.01978561680001,37.554335585100006,bus1252
bus,103900017,성동중앙교회.벽산아파트정문,127.02487752209998,37.5530067236,bus1253
bus,103900018,무학중학교.무학여고,127.0332891007,37.5584226161,bus1254
bus,103900104,천은교회.성동청소년상담복지센터,127.0266661363,37.5545919447,bus1255
bus,103900059,금호어린이집,127.0182314515,37.5567429983,bus1256
bus,103900105,행당2동주민센터,127.0304206318,37.5578295691,bus1257
bus,103900060,금봉어린이집.또또와마트,127.02879437600001,37.5526423775,bus1258
bus,103900106,대경생활과학고등학교,127.0175178242,37.5560687475,bus1259
bus,103900107,대현산체육관입구,127.0297135329,37.5529629395,bus1260
bus,103900147,GS주유소,127.0251253545,37.546811328000004,bus1261
bus,103900108,대림아파트후문,127.02693268700001,37.5561715023,bus1262
bus,103900109,상봉노인정앞,127.0302182436,37.5526731081,bus1263
bus,103900110,서울숲푸르지오아파트정문,127.02439375549999,37.5452561903,bus1264
bus,103900127,대림상가,127.0344662233,37.553878282,bus1265
bus,103900061,충북상회,127.0310093901,37.552792299400004,bus1266
bus,103900062,서울숲푸르지오아파트후문,127.02280363450001,37.5435444033,bus1267
bus,103000278,무학여고,127.03387682709999,37.5581244034,bus1268
bus,103000279,무학여고,127.0342446422,37.5580995199,bus1269
bus,103000280,응봉사거리,127.0340901941,37.5553018991,bus1270
bus,103000281,응봉사거리,127.03449189860001,37.5550801133,bus1271
bus,103900016,응봉역.광희중,127.03440342290001,37.5522011423,bus1272
bus,103900015,응봉경로당앞,127.03169396540001,37.5523884273,bus1273
bus,103900163,금호초등학교,127.0194943061,37.552688432800004,bus1274
bus,103900128,응봉초등학교.대림아파트,127.03316800559999,37.5508020956,bus1275
bus,103900014,행당서울숲푸르지오109동앞,127.03180120399999,37.5543861249,bus1276
bus,103900013,현대공업사앞,127.0324416568,37.5501059259,bus1277
bus,103900012,신동아아파트후문,127.0328358347,37.5546877083,bus1278
bus,103900011,신동아아파트,127.0300981967,37.5497675599,bus1279
bus,103900119,행당서울숲푸르지오상가앞,127.03401868620001,37.555572991300004,bus1280
bus,103900148,삼성래미안아파트,127.0275591319,37.5483750866,bus1281
bus,103900010,금호사거리,127.02506130340001,37.5481765011,bus1282
bus,103900009,금남시장앞.백범학원터,127.0216479967,37.5482744945,bus1283
bus,103900154,왕십리광장.왕십리역7번출구,127.03651628850001,37.5610465475,bus1284
bus,103900135,두산상가후문.106동,127.01673477889999,37.5493238937,bus1285
bus,103900008,극동아파트7동,127.01266570690001,37.543720760999996,bus1286
bus,103900007,두산아파트113동,127.016075787,37.550588495700005,bus1287
bus,103900006,두산아파트109동,127.0166113973,37.5498895494,bus1288
bus,103900005,극동아파트4동,127.011588323,37.5435316415,bus1289
bus,103900004,극동아파트4동,127.0116845111,37.5435055002,bus1290
bus,103900137,두산아파트109동,127.01680451629998,37.5498874229,bus1291
bus,103900138,두산아파트115동,127.01580137010001,37.5511399309,bus1292
bus,103900139,금호역,127.0168517068,37.5484545943,bus1293
bus,103900140,금호역.두산상가경비실,127.01660603280001,37.5486157549,bus1294
bus,103900003,금호역,127.0164272951,37.5484240169,bus1295
bus,103900002,금호역.3호선,127.01662532190001,37.5482942315,bus1296
bus,103900141,화단삼거리,127.0196278194,37.5482189796,bus1297
bus,103900001,두산아파트113동,127.01620638370001,37.550803946100004,bus1298
bus,103900155,벽산아파트501동앞,127.0254385471,37.5548866966,bus1299
bus,103900156,벽산아파트505동앞,127.0262518161,37.554401005500004,bus1300
bus,103900157,벽산아파트111동앞,127.02699386540002,37.5532022258,bus1301
bus,103900158,벽산아파트206동앞,127.027267386,37.5521525445,bus1302
bus,103900159,벽산아파트202동앞,127.027346896,37.551490248200004,bus1303
bus,103900160,벽산하이피아상가앞,127.0256432644,37.5521961609,bus1304
bus,103900161,우리은행.백범학원터,127.0211246097,37.5482659508,bus1305
bus,103900162,행당푸르지오아파트,127.0340034675,37.556239061999996,bus1306
bus,105000472,왕십리역,127.0369826501,37.5610536111,bus1307
bus,105000471,옥정중학교,127.0113005335,37.541247390500004,bus1308
bus,105000470,옥정중학교,127.01099347809999,37.5409744546,bus1309
bus,105000469,옥수삼성아파트,127.0148090773,37.5436087758,bus1310
bus,105000468,옥수삼성아파트,127.014614465,37.5437908214,bus1311
bus,105000467,금옥초등학교.금호대우아파트,127.01892909280001,37.546474573000005,bus1312
bus,105000466,금옥초등학교.금호대우아파트,127.018651851,37.5465899573,bus1313
bus,105000465,금호사거리,127.0241852708,37.5479784428,bus1314
bus,105000464,금호사거리,127.02500245280001,37.5481765136,bus1315
bus,105000463,금호삼성래미안,127.0269817622,37.5478769143,bus1316
bus,105000462,금호삼성래미안,127.0275353603,37.5483615758,bus1317
bus,105000461,응봉현대아파트,127.0307014263,37.549762899099996,bus1318
bus,105000460,응봉현대아파트,127.0309019007,37.5501304936,bus1319
bus,105000459,응봉주민센터,127.0335211731,37.553444005500005,bus1320
bus,105000458,응봉주민센터,127.0336017817,37.553999056799995,bus1321
bus,103900167,래미안옥수리버젠아파트상가,127.0157270249,37.5443727865,bus1322
bus,103900169,옥수동주민센터.옥수동성당,127.01401916879999,37.5436061689,bus1323
bus,103900190,국민은행,127.0122219232,37.5426971627,bus1324
bus,103900191,국민은행,127.01275608030001,37.5427782048,bus1325
bus,103900192,옥수동주민센터.옥수동성당,127.0136716778,37.5432376614,bus1326
bus,103900193,삼성아파트정문,127.01529347799999,37.5438267793,bus1327
bus,103900189,성동노인종합복지관,127.0414402566,37.5652097737,bus1328
bus,103900188,중앙하이츠아파트,127.03890012149999,37.5652526914,bus1329
bus,103900187,민자역사후문,127.0383642631,37.563549283600004,bus1330
bus,103900185,금호1가동주민센터,127.0208123009,37.5547282857,bus1331
bus,103900184,금호정형외과,127.02045785909999,37.5540867685,bus1332
bus,103900182,금호고등학교앞,127.0233929107,37.552979954899996,bus1333
bus,103900181,벽산하이피아상가,127.026001811,37.5519671275,bus1334
bus,103900180,벽산노인정,127.0268504902,37.551058710999996,bus1335
bus,103900179,벽산아파트107동,127.0274313269,37.5516875417,bus1336
bus,103900178,벽산아파트109동,127.0274448395,37.5526114413,bus1337
bus,103900177,벽산아파트505동,127.0263706309,37.5543216827,bus1338
bus,103900176,벽산아파트501동,127.0255887508,37.5550078999,bus1339
bus,103900175,광희중학교.응봉역,127.035058499,37.551911030599996,bus1340
bus,103900174,한신아파트후문,127.0370729773,37.553740304899996,bus1341
bus,103900173,한신아파트정문,127.03538254600001,37.5548347521,bus1342
bus,103900172,민자역사후문,127.0386950898,37.56308291,bus1343
bus,103900171,중앙하이츠아파트,127.0384486598,37.5650542998,bus1344
bus,103900170,삼성래미안아파트,127.0402755817,37.565494021,bus1345
bus,103900196,금북초등학교입구,127.02361616489999,37.555655885300006,bus1346
bus,103900195,대현산배수지공원앞,127.0220574589,37.555177705700004,bus1347
bus,103900198,선영약국,127.0306171809,37.5667721811,bus1348
bus,103900197,텐즈힐아파트101동.115동,127.02927963200001,37.5669824288,bus1349
bus,103900202,숭신초등학교.도선고등학교앞,127.0271676387,37.5673296859,bus1350
bus,103900201,왕십리도선동주민센터,127.0259157424,37.567708426100005,bus1351
bus,103900200,텐즈힐아파트120동.213동앞,127.0260063322,37.56912306,bus1352
bus,103900199,왕십리중앙교회,127.026707232,37.570001558499996,bus1353
bus,103900211,마장동현대아파트,127.0430256561,37.5701654913,bus1354
bus,103900208,청계장원아파트,127.044748559,37.569329177600004,bus1355
bus,103900203,마장2교사거리,127.04546369030001,37.5679751585,bus1356
bus,103900204,마장2교사거리,127.0456033009,37.5681827453,bus1357
bus,103900207,청계장원아파트,127.0448455263,37.5693427411,bus1358
bus,103900209,옥수교회,127.016009017,37.5452371461,bus1359
bus,103900210,텐즈힐아파트107동앞,127.0285144783,37.569568582399995,bus1360
bus,103900212,응봉동현대아파트,127.03093800639999,37.549861957800005,bus1361
bus,103900216,논골.대림아파트107동.금호동벽산아파트,127.02495442729999,37.5558963995,bus1362
bus,103900217,옥수역5.6번출구,127.0169983806,37.541853754899996,bus1363
bus,103900219,서울숲푸르지오아파트,127.0237432904,37.5450150995,bus1364
bus,103900248,언더스탠드에비뉴,127.042776,37.543572,bus1365
bus,103900249,성동구민체육센터,127.044474,37.545138,bus1366
bus,103900251,경일중고등학교,127.049131,37.542316,bus1367
bus,103900253,이마트.서울숲힐스테이트아파트,127.05276599999999,37.540475,bus1368
bus,103900254,서울숲코오롱디지털타워2차,127.05398999999998,37.541411,bus1369
bus,103900255,서울경찰청제6기동단,127.05473899999998,37.540076,bus1370
bus,103900256,한라시그마밸리앞,127.05532,37.539646999999995,bus1371
bus,103900257,성수역3번출구,127.05710400000001,37.543944,bus1372
bus,103900258,서울숲코오롱디지털타워2차,127.053848,37.541461,bus1373
bus,103900259,이마트.서울숲힐스테이트아파트,127.05256999999999,37.540528,bus1374
bus,103900261,현대그린아파트,127.049622,37.540523,bus1375
bus,103900233,성수역3번출구,127.0566906693,37.5435598293,bus1376
bus,103900262,경일중고등학교,127.04921000000002,37.542503,bus1377
bus,103900235,한라시그마밸리,127.0551786364,37.5399060735,bus1378
bus,103900236,서울경찰청제6기동단,127.05477118489999,37.540228157,bus1379
bus,103900263,서울숲역,127.045146,37.543869,bus1380
bus,103900264,성동구민종합체육센터,127.04451499999999,37.54527,bus1381
bus,103900265,서울숲2번출입구,127.04255,37.543527000000005,bus1382
bus,103900242,서울숲9번출입구,127.03755914,37.5436374894,bus1383
bus,103900218,옥수역4번출구,127.0176124993,37.5418118508,bus1384
bus,103900243,성수대교북단교차로,127.03551699559999,37.5442958508,bus1385
bus,103900246,마장역,127.0426522462,37.5661140833,bus1386
bus,103900247,마장역,127.0423947542,37.5656474129,bus1387
bus,103900266,옥정초등학교,127.015419565,37.5408892401,bus1388
bus,103900267,e편한세상금호109동,127.0218758358,37.5534825943,bus1389
bus,103900268,왕십리자이아파트107동,127.02596929139999,37.5597128375,bus1390
bus,103900269,왕십리KCC스위첸아파트,127.0268266814,37.5603742034,bus1391
bus,103900270,금호베스트빌아파트노인정앞,127.02506953299999,37.5618733218,bus1392
bus,103900271,풍림아이원아파트후문,127.0268499549,37.5601942456,bus1393
bus,103900272,응봉역.광희중학교,127.0352978775,37.5518786122,bus1394
bus,103900273,대림강변타운아파트A상가,127.03571719780001,37.5547901705,bus1395
bus,103900274,리버그린동아아파트정문,127.03752373719999,37.5534932401,bus1396
bus,103900275,서울숲리버뷰자이아파트제2주차장,127.0394073408,37.5561652703,bus1397
bus,103900276,서울숲리버뷰자이아파트제2주차장,127.0392797867,37.555721571599996,bus1398
bus,103900277,서울숲리버뷰자이아파트제1주차장,127.0388889816,37.5541970798,bus1399
bus,103900278,왕십리로교차로,127.03893544280001,37.557719765,bus1400
bus,103900279,왕십리로교차로,127.0391339263,37.557767606599995,bus1401
bus,103900280,리버그린동아아파트,127.03827207350001,37.553344390999996,bus1402
bus,103000514,서울숲리버뷰자이아파트제1주차장,127.0392367112,37.554509744099995,bus1403
bus,103900281,왕십리역6-1번출구,127.03791295319999,37.5607923799,bus1404
bus,103900282,행당동서울숲더샵,127.0397222715,37.5578072325,bus1405
bus,103900294,행당동서울숲더샵,127.0399091167,37.5580008839,bus1406
bus,103000511,서울숲공원,127.042573685,37.5420905951,bus1407
bus,103000512,성수역수제화거리,127.0546184401,37.5451580248,bus1408
bus,103000513,한양대역,127.0432470892,37.556865150300005,bus1409
bus,103900285,한양대학교병원본관1층,127.04380161739999,37.559459871,bus1410
bus,103900291,한양대학교병원본관1층,127.0435712108,37.5594516108,bus1411
bus,103900286,한양대학교병원응급실,127.0445985625,37.5598124622,bus1412
bus,103900290,한양대학교류마티스병원동관,127.04465241700001,37.5599701163,bus1413
bus,103900287,한양대학교백남학술정보관,127.04462773780001,37.5589963484,bus1414
bus,103900289,한양종합기술연구원.생활과학대학,127.04491231530001,37.5590603809,bus1415
bus,103900288,한양대학교생활과학대학,127.04650287790001,37.5568034886,bus1416
bus,103900284,한양대학교제2의학관,127.0421309686,37.559331335100005,bus1417
bus,103900283,한양대학교정문,127.04212281790001,37.5577761117,bus1418
bus,104000001,군자교입구,127.07564614809999,37.5587409868,bus1419
bus,104000002,군자교입구,127.07490027760001,37.5587937258,bus1420
bus,104000003,군자역.용마초등학교,127.082473132,37.5560989145,bus1421
bus,104000004,군자역.용마초등학교,127.081556441,37.556269819200004,bus1422
bus,104000005,중곡동입구삼거리,127.08655050899999,37.5544965543,bus1423
bus,104000006,어린이대공원후문아차산역,127.0901491873,37.551208471799995,bus1424
bus,104000007,어린이대공원후문아차산역,127.0892141692,37.5527548961,bus1425
bus,104000299,중곡동입구삼거리,127.085229,37.554926,bus1426
bus,104000296,새밭교회,127.0931845435,37.5489834052,bus1427
bus,104000295,새밭교회,127.0926144514,37.548957926,bus1428
bus,104000298,광나루역,127.1026490566,37.5457409721,bus1429
bus,104000297,광나루역,127.1037600333,37.5451588569,bus1430
bus,104000008,군자교,127.0752029849,37.561532856999996,bus1431
bus,104000009,군자교,127.0752287457,37.5623861756,bus1432
bus,104000010,메리놀외방선교회,127.0773349708,37.5589508735,bus1433
bus,104000011,메리놀외방선교회,127.0776318627,37.559086619,bus1434
bus,104000012,중곡1동주민센터입구,127.0783835194,37.5605224214,bus1435
bus,104000013,중곡1동주민센터입구,127.07840369899999,37.5608783017,bus1436
bus,104000014,중곡1동사거리,127.0794725244,37.5624536807,bus1437
bus,104000015,중곡1동사거리,127.0792818001,37.5624813464,bus1438
bus,104000016,중마초등학교.중곡제일골목시장앞,127.0808443646,37.5649806937,bus1439
bus,104000018,용마사거리,127.08187209719999,37.5622907455,bus1440
bus,104000019,중곡2동주민센터앞,127.0808552636,37.5598837254,bus1441
bus,104000020,중곡2동주민센터앞,127.08115517510001,37.559840267199995,bus1442
bus,104000021,중곡동성당앞,127.08293632870001,37.5631682406,bus1443
bus,104000022,종합의료복합단지,127.08336013479999,37.5638882429,bus1444
bus,104000023,중곡동종점,127.08706185950001,37.562072572699996,bus1445
bus,104000024,중곡보건지소,127.0869845748,37.5599194877,bus1446
bus,101000252,신성시장앞,127.08767550370001,37.5583163621,bus1447
bus,104000026,중곡우체국앞,127.0838852989,37.5615773116,bus1448
bus,104000027,면곡시장,127.0797293274,37.569746048,bus1449
bus,104000028,면곡시장,127.0794405363,37.5700272219,bus1450
bus,104000029,중곡아파트,127.0778996992,37.5664012264,bus1451
bus,104000030,중곡아파트,127.07717696520001,37.5657955541,bus1452
bus,104000031,중마초등학교.중곡제일골목시장앞,127.0808531239,37.5652307141,bus1453
bus,104000032,중곡역입구,127.0816150335,37.5663404337,bus1454
bus,104000033,중곡역입구,127.08164815040001,37.5666597846,bus1455
bus,104000034,중곡3동주민센터앞,127.08279512889999,37.5685360222,bus1456
bus,104000035,중곡3동주민센터앞,127.0826418853,37.5684915275,bus1457
bus,104000036,면곡시장앞,127.08328437450001,37.570794923600005,bus1458
bus,104000037,면곡시장앞,127.0834488311,37.5710831259,bus1459
bus,104000038,용암사입구,127.08605661610001,37.5679159934,bus1460
bus,104000039,용곡삼거리,127.0855902354,37.5679334531,bus1461
bus,104000040,중곡역.국립정신건강센터,127.0845454928,37.5660464177,bus1462
bus,104000041,대원고교앞,127.086708621,37.5639660286,bus1463
bus,104000042,용암사입구,127.0863735321,37.5678680041,bus1464
bus,104000043,대원고교앞,127.0869681157,37.564199220700004,bus1465
bus,104000044,중곡동종점,127.0873093515,37.5626950451,bus1466
bus,104000045,신성시장,127.0879297616,37.5583189468,bus1467
bus,104000046,중곡동입구,127.0886689538,37.5541967204,bus1468
bus,104000047,어린이대공원앞,127.0770314953,37.552045863800004,bus1469
bus,104000048,능동사거리.군자역,127.0786346746,37.5551766839,bus1470
bus,104000049,구의사거리.광진소방서앞,127.08397765299999,37.545249575,bus1471
bus,104000050,어린이회관,127.07706714129999,37.5461546263,bus1472
bus,104000051,구의사거리.광진소방서앞,127.08430237540001,37.5449986565,bus1473
bus,104000052,광진경찰서,127.0836883111,37.541533661399995,bus1474
bus,104000053,광진경찰서,127.0846474366,37.5430873683,bus1475
bus,104000054,광진경찰서,127.0842426589,37.5422101065,bus1476
bus,104000055,광진구청,127.0834073669,37.5389648482,bus1477
bus,104000056,구의역2번출구,127.0879772581,37.5377026867,bus1478
bus,104000057,래미안구의파크스위트,127.0890122213,37.5447158904,bus1479
bus,104000058,구의2동주민센터입구,127.0897846677,37.5492515718,bus1480
bus,104000059,구의2동주민센터입구,127.08958588,37.5486416815,bus1481
bus,104000060,구의사거리,127.0857469566,37.5456510932,bus1482
bus,104000061,구의사거리,127.08634808309999,37.5458173579,bus1483
bus,104000062,래미안구의파크스위트,127.0890507143,37.544963815500005,bus1484
bus,104000063,현대아파트앞,127.0940086584,37.5395524961,bus1485
bus,104000064,현대아파트앞,127.0941742917,37.539643765,bus1486
bus,104000065,광진우체국,127.09040900000001,37.537997999999995,bus1487
bus,104000183,강변역A,127.09349955620002,37.536026008200004,bus1488
bus,104000279,테크노마트앞.강변역,127.09375498780001,37.536864513699996,bus1489
bus,104000070,현대2단지,127.0965424639,37.5378533679,bus1490
bus,104000071,올림픽대교북단사거리,127.0932099949,37.5433926994,bus1491
bus,104000072,올림픽대교북단사거리,127.0936875546,37.5433887171,bus1492
bus,104000073,광장동현대아파트앞,127.09776408639999,37.541909114,bus1493
bus,104000074,광장동현대아파트앞,127.0989722091,37.54207254,bus1494
bus,104000075,광나루역.극동아파트,127.1029628675,37.5435355041,bus1495
bus,104000076,광나루역.극동아파트,127.10332028229999,37.5442424761,bus1496
bus,104000271,워커힐아파트.광장동,127.1067149694,37.547895755,bus1497
bus,104000080,워커힐아파트앞,127.1090263699,37.5504960052,bus1498
bus,104000081,워커힐입구,127.1087232242,37.550613426999995,bus1499
bus,104000082,광진구청,127.0831891894,37.5387627825,bus1500
bus,104000083,자양사거리,127.08243205469999,37.5369337778,bus1501
bus,104000084,자양사거리,127.0821044683,37.5367503042,bus1502
bus,104000085,자양초등학교앞,127.07846737290001,37.5379478514,bus1503
bus,104000086,자양초등학교앞,127.0792651176,37.537422864899995,bus1504
bus,104000087,건국대학교앞,127.0750483076,37.5387452063,bus1505
bus,104000090,자양미소약국.자양골목시장,127.07731899999999,37.53275,bus1506
bus,104000092,국민은행자양지점앞,127.08141306600001,37.531572725,bus1507
bus,104000094,자양하늘채베르아파트앞,127.08460796530001,37.5321922367,bus1508
bus,104000095,자양동잠실대교북단,127.0848057104,37.5329553244,bus1509
bus,104000096,신자초등학교앞,127.0749155368,37.5304403173,bus1510
bus,104000097,자양미소약국.자양골목시장,127.0768712862,37.5327003382,bus1511
bus,104000098,국민은행자양지점앞,127.0807386521,37.5315308364,bus1512
bus,104000291,동서울우편집중국앞,127.084337729,37.5350521104,bus1513
bus,104000100,자양하늘채베르아파트앞,127.0846733447,37.531973223099996,bus1514
bus,104000101,자양동잠실대교북단,127.0858514017,37.5321201527,bus1515
bus,104000106,구의역3번출구,127.0882893582,37.5375186301,bus1516
bus,104000107,국민은행신자양지점,127.066874712,37.5355719112,bus1517
bus,104000108,신양초등학교앞,127.0692877009,37.5349118182,bus1518
bus,104000109,신양초등학교앞,127.0689474032,37.535233709,bus1519
bus,104000110,뚝도변전소앞,127.0689075815,37.5360909985,bus1520
bus,104000111,광진문화예술회관,127.07016920059999,37.5385652456,bus1521
bus,104000112,건국대학교앞,127.07487539290001,37.5384461141,bus1522
bus,104000116,신자초등학교앞,127.074922,37.530768,bus1523
bus,104000117,자양우성아파트앞,127.0734112939,37.5337952382,bus1524
bus,104000118,자양우성아파트앞,127.0734066984,37.533946958,bus1525
bus,104000119,자양고교앞,127.0711714016,37.5345790942,bus1526
bus,104000120,자양고교앞,127.0713601174,37.53431586,bus1527
bus,104000121,대동아파트앞,127.06896699999999,37.536419,bus1528
bus,104000122,국민은행신자양지점,127.0672016099,37.5357293289,bus1529
bus,104000123,노룬산시장,127.0626912618,37.5395029881,bus1530
bus,104000124,건대입구역6번출구,127.0672788711,37.5408268775,bus1531
bus,104000125,건대로데오거리입구,127.070158,37.539081,bus1532
bus,104000126,노룬산시장앞,127.06294473860001,37.5368058708,bus1533
bus,104000127,영동대교북단,127.0611888361,37.5367146879,bus1534
bus,104000128,노룬산시장앞,127.06289930850001,37.5366067526,bus1535
bus,104000129,신양초등학교앞,127.06791669129998,37.5338028399,bus1536
bus,104000130,자양4동주민센터앞,127.067497,37.533632,bus1537
bus,104000131,성수사거리,127.06477658879999,37.5431585111,bus1538
bus,104000132,화양사거리,127.06708856879999,37.5472318425,bus1539
bus,104000133,광진광장,127.07152091479999,37.5477151717,bus1540
bus,104000134,어린이대공원역.화양천주교회,127.07362849379999,37.5466216409,bus1541
bus,104000135,한아름공원,127.072222,37.543765,bus1542
bus,104000136,건대입구역사거리.건대병원,127.093185,37.548983,bus1543
bus,104000137,건대입구역1번출구,127.0681672642,37.5408957525,bus1544
bus,104000138,어린이대공원역3번출구,127.0751469149,37.5468045831,bus1545
bus,104000139,건대입구역사거리.건대병원,127.071248506,37.5408198597,bus1546
bus,104000290,어린이회관,127.079595313,37.5452722228,bus1547
bus,104000141,어린이대공원역.화양천주교회,127.0735881785,37.5459043941,bus1548
bus,104000142,송정동서울숲아이파크,127.0695975111,37.5517044591,bus1549
bus,104000143,송정동건영아파트,127.07129855059999,37.5547537734,bus1550
bus,104000144,군자교남단,127.07278793389999,37.557410966999996,bus1551
bus,104000145,KEB.하나은행.군자동.지점,127.0767090775,37.557708548899996,bus1552
bus,104000146,KEB.하나은행.군자동.지점,127.0765591034,37.5571562758,bus1553
bus,104000147,능동우편취급국,127.0760329007,37.556160907199995,bus1554
bus,104000148,군자삼거리,127.0752869423,37.5549755455,bus1555
bus,104000149,군자삼거리,127.07532283030001,37.5546466232,bus1556
bus,104000150,세종초등학교.세종사이버대학교앞,127.07339669129999,37.5535248785,bus1557
bus,104000151,세종초교앞,127.0743618087,37.5538666538,bus1558
bus,104000152,군자새마을금고.성동광진위센터,127.0713225073,37.5518512093,bus1559
bus,104000153,군자새마을금고앞,127.07108775540001,37.5513566499,bus1560
bus,104000154,장안초등학교,127.07075475399999,37.5486923124,bus1561
bus,104000155,장안초등학교,127.07048355469999,37.5485801736,bus1562
bus,104000293,화양사거리,127.0686841693,37.548328898600005,bus1563
bus,104000157,광진광장,127.07154107870001,37.5480051511,bus1564
bus,104000158,어린이대공원앞.세종대학교,127.07543999999999,37.549752000000005,bus1565
bus,104000159,능동교회앞,127.0769927342,37.5528739948,bus1566
bus,104000160,능동사거리.군자역,127.07882,37.556321999999994,bus1567
bus,104000308,아차산역삼거리,127.0867859773,37.554581225999996,bus1568
bus,104000309,용마초등학교,127.081723671,37.5565422552,bus1569
bus,104000165,어린이대공원후문,127.0905075507,37.5508666828,bus1570
bus,104000310,서울화양동우체국,127.0687743625,37.5481104097,bus1571
bus,104000167,중곡동입구,127.0882622041,37.554798956,bus1572
bus,104000168,제일은행사거리,127.0747505569,37.5335505333,bus1573
bus,104000169,동곡삼거리,127.0779538856,37.5636739408,bus1574
bus,104000170,건대병원입구,127.0714727877,37.5421084758,bus1575
bus,104000269,광진청소년수련관,127.1053745185,37.5459514944,bus1576
bus,104000280,강변역B,127.09353457030001,37.5359746179,bus1577
bus,104000069,테크노마트앞.강변역,127.09380312520001,37.5369050205,bus1578
bus,104000275,중곡동성당,127.0824010859,37.562765419499996,bus1579
bus,104000274,종합의료복합단지,127.0833026919,37.564373065,bus1580
bus,104000273,중곡역.국립정신건강센터,127.0843249567,37.5662294972,bus1581
bus,104000272,용곡삼거리,127.0855997978,37.5685782991,bus1582
bus,104000302,구의3동주민센터,127.0925470575,37.5390684116,bus1583
bus,104000303,구의3동주민센터,127.09210009620001,37.5390484885,bus1584
bus,104000307,광진구민체육센터,127.1078574657,37.5469081131,bus1585
bus,104000306,광나루우편취급국,127.1063092687,37.5474023285,bus1586
bus,104000304,건대입구(가상),127.0709898289,37.5401911408,bus1587
bus,104900124,중곡4동경로당입구앞,127.0939630731,37.5591306198,bus1588
bus,104900085,중곡아파트.종점,127.0779156425,37.566378976799996,bus1589
bus,104900059,긴고랑종점,127.09604292469999,37.562194465,bus1590
bus,104900058,정보도서관,127.11046222979999,37.5502486719,bus1591
bus,104900123,강원설비앞,127.0901359394,37.5590029448,bus1592
bus,104900122,강원설비앞,127.08993540709999,37.558849010799996,bus1593
bus,104900089,중앙상회앞,127.0947974601,37.5601590013,bus1594
bus,104900057,한강호텔입구,127.10945232819999,37.548454631599995,bus1595
bus,104900121,중곡4동경로당입구앞,127.09428121719999,37.5591925416,bus1596
bus,104900128,중곡아파트.기점,127.0781637961,37.5668768426,bus1597
bus,104900056,구.새마을금고앞,127.08717092379999,37.561441727100004,bus1598
bus,104900055,CU중곡긴고랑점앞,127.09303124629999,37.5589159963,bus1599
bus,104900054,광나루현대아파트,127.1075869834,37.546721738,bus1600
bus,104000294,긴고랑주차장,127.0956309346,37.560960639899996,bus1601
bus,104900053,신성시장입구,127.08800966049999,37.5585269693,bus1602
bus,104900052,중곡4동어린이집입구,127.0917043706,37.5586845522,bus1603
bus,104900109,신동아아파트,127.105328946,37.5463512912,bus1604
bus,104900051,마을금고.브레드제과점,127.0892468924,37.5576339581,bus1605
bus,104900049,긴고랑입구,127.0886688403,37.5588770015,bus1606
bus,104900048,우리들약국,127.0902850791,37.5569014807,bus1607
bus,104900050,광남고.삼성아파트,127.10141830090001,37.5419477863,bus1608
bus,104900047,해오름공원입구,127.0911230749,37.5563079173,bus1609
bus,104900046,현대3차아파트,127.09964869379999,37.5404651876,bus1610
bus,104900045,기업은행.용마사거리,127.0814330674,37.5624460371,bus1611
bus,104900044,기원정사입구,127.0931371525,37.5548826175,bus1612
bus,104900042,송림식당앞,127.0766299665,37.5368221134,bus1613
bus,104900041,중곡우체국앞,127.0840577691,37.5611637445,bus1614
bus,104900040,영화사입구,127.09411763809999,37.5542285469,bus1615
bus,104900039,군자역,127.0800822765,37.5578748138,bus1616
bus,104900038,강변역.테크노마트앞,127.0948590232,37.5363934727,bus1617
bus,104900037,자양중학교앞,127.0759963869,37.5346905273,bus1618
bus,104900036,성안약국,127.0932969209,37.5532100607,bus1619
bus,104900035,지영슈퍼,127.09219394790001,37.5518187362,bus1620
bus,104900100,구의역,127.0892373497,37.538238794899996,bus1621
bus,104900112,국민은행자양지점,127.07923877719999,37.5319860054,bus1622
bus,104900034,아차산역사거리,127.0913081489,37.550721545100004,bus1623
bus,104900033,중곡보건지소,127.0870747483,37.5595305795,bus1624
bus,104900102,미니스톱구의중앙점앞,127.0900164716,37.5415506336,bus1625
bus,104900031,영동대교입구.성수사거리,127.06434137629999,37.542399125100005,bus1626
bus,104900030,선화예고앞,127.09005883379999,37.5494847466,bus1627
bus,104900029,긴고랑입구,127.08866867370001,37.5587364311,bus1628
bus,104900032,구의홈마트앞,127.0897229975,37.5402902234,bus1629
bus,104900028,화양동현대아파트,127.0652401586,37.5439827587,bus1630
bus,104900114,성자초등학교앞,127.0822557273,37.5313000096,bus1631
bus,104900027,한국켄트외국인학교,127.0880988204,37.5477299911,bus1632
bus,104900026,중곡4동어린이집입구,127.0916679445,37.5585169771,bus1633
bus,104900025,래미안구의파크스위트사거리,127.0906000271,37.544048926100004,bus1634
bus,104900024,성수대우프레시아1차아파트,127.0659848276,37.5452943403,bus1635
bus,104900023,CU중곡긴고랑점앞,127.0930027538,37.5587592285,bus1636
bus,104900022,화양사거리SKV1센터,127.06641045719999,37.546257958000005,bus1637
bus,104900116,행운슈퍼앞,127.0870098898,37.5329501167,bus1638
bus,104900021,중앙상회앞,127.09497213360001,37.560157792199995,bus1639
bus,104900106,한창주택,127.0891356598,37.5336144423,bus1640
bus,104900020,광장중학교앞,127.1024015366,37.5467903263,bus1641
bus,104900099,구의아크로리버앞,127.0921362577,37.5352926857,bus1642
bus,104900019,구의역4번출구,127.084837057,37.5366543055,bus1643
bus,104900018,장신대앞,127.1052273651,37.5475393553,bus1644
bus,104900097,강변역A,127.093833,37.535988,bus1645
bus,104900110,워커힐아파트입구,127.10659414530001,37.5478863435,bus1646
bus,104900103,동서울호텔앞,127.0920685648,37.5345349158,bus1647
